place_id,name,latitude,longitude,categories,address_line1,address_line2,city,state,postcode,country,formatted_address,website,phone,distance_meters
5173309b00c39e5ac059104d88d063c33f40f00103f901edb0b01f02000000920325506f6469756d2046696e6973682053706f727420426f75746971756520616e642043616665,Podium Finish Sport Boutique and Cafe,31.7632418,-106.480652,"commercial, commercial.outdoor_and_sport, commercial.outdoor_and_sport.bicycle",Podium Finish Sport Boutique and Cafe,"921 Texas Avenue, El Paso, TX 79901, United States of America",El Paso,Texas,79901,United States,"Podium Finish Sport Boutique and Cafe, 921 Texas Avenue, El Paso, TX 79901, United States of America",https://podiumfinishsportcafe.com/,,438.0
5136ae167e609f5ac05950c7c85f6bc33f40f00102f9018bff230c000000009203085370656564776179,Speedway,31.763357149999997,-106.49026443686384,"building, building.commercial, commercial, commercial.convenience",Speedway,"715 North Stanton Street, El Paso, TX 79902, United States of America",El Paso,Texas,79902,United States,"Speedway, 715 North Stanton Street, El Paso, TX 79902, United States of America",https://www.speedway.com/locations/TX/El-Paso/715-N-Stanton-St,,516.0
51cde26a091e9f5ac059a1088adb68c43f40f00103f90188d1bbd9000000009203185175616c69747920436f696e20616e64204a6577656c7279,Quality Coin and Jewelry,31.767225,-106.4862083,"commercial, commercial.jewelry",Quality Coin and Jewelry,"700 Montana Avenue, El Paso, TX 79902, United States of America",El Paso,Texas,79902,United States,"Quality Coin and Jewelry, 700 Montana Avenue, El Paso, TX 79902, United States of America",,,601.0
51db92663d469f5ac059f2c6fa1de5c13f40f00103f901cc8eb5bc0200000092030d4865726f204174686c65746963,Hero Athletic,31.7574023,-106.4886621,"commercial, commercial.clothing, commercial.clothing.clothes",Hero Athletic,"South El Paso Street, El Paso, TX 79901, United States of America",El Paso,Texas,79901,United States,"Hero Athletic, South El Paso Street, El Paso, TX 79901, United States of America",,,608.0
51aadbc13f709f5ac059c1cade698dc33f40f00102f9015fd0253b00000000920310416e67656c757320436c65616e657273,Angelus Cleaners,31.76387655,-106.49122613841487,"building, building.commercial, commercial, service, service.cleaning, service.cleaning.dry_cleaning",Angelus Cleaners,"816 North Mesa Street, El Paso, TX 79902, United States of America",El Paso,Texas,79902,United States,"Angelus Cleaners, 816 North Mesa Street, El Paso, TX 79902, United States of America",,,615.0
51585826b2459f5ac059eab3a33edac13f40f00103f901cb8eb5bc0200000092031244617665e2809973205061776e2053686f70,Dave’s Pawn Shop,31.7572364,-106.4886289,commercial,Dave’s Pawn Shop,"216 South El Paso Street, El Paso, TX 79901, United States of America",El Paso,Texas,79901,United States,"Dave’s Pawn Shop, 216 South El Paso Street, El Paso, TX 79901, United States of America",,,621.0
51caefd2c7709f5ac059e2b6f31494c33f40f00102f9015ed0253b00000000920328546f6f746820616e64205665696c204f6464697469657320616e64204d6163616272652053686f70,Tooth and Veil Oddities and Macabre Shop,31.763978299999998,-106.49125857924733,"building, building.commercial, commercial, commercial.gift_and_souvenir",Tooth and Veil Oddities and Macabre Shop,"820 North Mesa Street, El Paso, TX 79902, United States of America",El Paso,Texas,79902,United States,"Tooth and Veil Oddities and Macabre Shop, 820 North Mesa Street, El Paso, TX 79902, United States of America",,,624.0
510cd58338459f5ac0590cf19ebfd0c13f40f00103f901ca8eb5bc0200000092031947656e657661204c6f616e2026204a6577656c727920436f2e,Geneva Loan & Jewelry Co.,31.7570915,-106.4885999,commercial,Geneva Loan & Jewelry Co.,"222 South El Paso Street, El Paso, TX 79901, United States of America",El Paso,Texas,79901,United States,"Geneva Loan & Jewelry Co., 222 South El Paso Street, El Paso, TX 79901, United States of America",,,633.0
515ca3e5400f9f5ac059eed309c96ec13f40f00103f901baa854210100000092031843656e74726f206465206c61205465636e6f6c6f67c3ad61,Centro de la Tecnología,31.7555967,-106.485306,"commercial, commercial.elektronics",Centro de la Tecnología,"East Paisano Drive, El Paso, TX 79901, United States of America",El Paso,Texas,79901,United States,"Centro de la Tecnología, East Paisano Drive, El Paso, TX 79901, United States of America",,,700.0
51a7edba125c9f5ac05984d9ccddaec13f40f00103f9017ea348860100000092031147726579686f756e64205469636b657473,Greyhound Tickets,31.7565745,-106.4899947,"commercial, commercial.tickets_and_lottery",Greyhound Tickets,"200 West San Antonio Avenue, El Paso, TX 79901, United States of America",El Paso,Texas,79901,United States,"Greyhound Tickets, 200 West San Antonio Avenue, El Paso, TX 79901, United States of America",,,757.0
51205fa8ee8c9f5ac059049ffbd3b2c33f40f00102f9013c9ad20f000000009203134672657368205374617274204c61756e647279,Fresh Start Laundry,31.76444745,-106.49297682230508,"building, building.commercial, commercial, service, service.cleaning, service.cleaning.laundry",Fresh Start Laundry,"East Rio Grande Avenue, El Paso, TX 79901, United States of America",El Paso,Texas,79901,United States,"Fresh Start Laundry, East Rio Grande Avenue, El Paso, TX 79901, United States of America",,,794.0
515d5badb7989f5ac059b908e594dbc33f40f00102f90175a5d20f00000000,,31.7650693,-106.49369613580116,"building, building.commercial, commercial, commercial.health_and_beauty, commercial.health_and_beauty.optician",Arizona Avenue,"El Paso, TX 79968, United States of America",El Paso,Texas,79968,United States,"Arizona Avenue, El Paso, TX 79968, United States of America",,,884.0
51dcd2be319b9f5ac059d08f730de9c33f40f00102f90177a5d20f00000000,,31.76527485,-106.49384730944753,"building, building.commercial, commercial, commercial.health_and_beauty, commercial.health_and_beauty.optician",North Oregon Street,"El Paso, TX 79968, United States of America",El Paso,Texas,79968,United States,"North Oregon Street, El Paso, TX 79968, United States of America",,,894.0
51af0ad462709e5ac059d3d7da1214c43f40f00103f90180e6d7620200000092031e57657374205465786173204d65646963616c205370656369616c74696573,West Texas Medical Specialties,31.7659313,-106.4756095,"commercial, commercial.health_and_beauty, commercial.health_and_beauty.medical_supply",West Texas Medical Specialties,"1320 Texas Avenue, El Paso, TX 79901, United States of America",El Paso,Texas,79901,United States,"West Texas Medical Specialties, 1320 Texas Avenue, El Paso, TX 79901, United States of America",westtexasmedicalspecialties.com,,996.0
51d8322aba3f9f5ac059b12151c9a5c03f40f00103f901109b08e100000000,,31.7525297,-106.4882646,"commercial, commercial.vehicle",West Father Rahm Avenue,"El Paso, TX 79901, United States of America",El Paso,Texas,79901,United States,"West Father Rahm Avenue, El Paso, TX 79901, United States of America",,,1084.0
5190e719efe59e5ac05914b5cbcefdbf3f40f00102f901a7c6ee090000000092030853696c7661c2b473,Silva´s,31.74996655,-106.48278405694714,"building, building.commercial, commercial, commercial.convenience",Silva´s,"Express Lane, El Paso, TX 79901, United States of America",El Paso,Texas,79901,United States,"Silva´s, Express Lane, El Paso, TX 79901, United States of America",,,1300.0
515141c0a2cd9f5ac059413fb05538c53f40f00102f901bd3e02200000000092032147656e746c656d616e27732052657075626c6963204261726265722053616c6f6e,Gentleman's Republic Barber Salon,31.77039085,-106.49692600989263,"building, building.commercial, commercial, service, service.beauty, service.beauty.hairdresser",Gentleman's Republic Barber Salon,"Rim Road, El Paso, TX 79968, United States of America",El Paso,Texas,79968,United States,"Gentleman's Republic Barber Salon, Rim Road, El Paso, TX 79968, United States of America",,,1461.0
51ec2fbb278f9e5ac059e360edf5ffc53f40f00103f901dba8bbd900000000,,31.7734369,-106.4774875,"commercial, commercial.jewelry",1609 Montana Avenue,"El Paso, TX 79902, United States of America",El Paso,Texas,79902,United States,"1609 Montana Avenue, El Paso, TX 79902, United States of America",,,1464.0
51a19020ac00a05ac05944858093c8c03f40f00102f90120066e1800000000,,31.75306055,-106.50004103832408,"building, building.commercial, commercial, commercial.supermarket",Boulevard Ingeniero Bernardo Norzagaray,"Felipe Ángeles, 32160 Ciudad Juárez, CHH, Mexico",Ciudad Juárez,Chihuahua,32160,Mexico,"Boulevard Ingeniero Bernardo Norzagaray, Felipe Ángeles, 32160 Ciudad Juárez, CHH, Mexico",,,1638.0
51ce31c5c1ca9f5ac059f137c66537c03f40f00103f901972ec7f400000000,,31.7508453,-106.4967503,"commercial, commercial.convenience",Calle Amapolas,"Postal, 32160 Ciudad Juárez, CHH, Mexico",Ciudad Juárez,Chihuahua,32160,Mexico,"Calle Amapolas, Postal, 32160 Ciudad Juárez, CHH, Mexico",,,1656.0
511a48bce1639f5ac0594479fb7964bf3f40f00103f90192305eeb00000000,,31.7476269,-106.4904713,"commercial, commercial.convenience",Calle Violetas,"Durango, 32160 Ciudad Juárez, CHH, Mexico",Ciudad Juárez,Chihuahua,32160,Mexico,"Calle Violetas, Durango, 32160 Ciudad Juárez, CHH, Mexico",,,1665.0
51665c9b4f09a05ac0598a1d5674ebc03f40f00102f90171cec50f00000000920305536d617274,Smart,31.753592750000003,-106.50056829616514,"building, building.commercial, commercial, commercial.supermarket",Smart,"Calle Cloro, Postal, 32160 Ciudad Juárez, CHH, Mexico",Ciudad Juárez,Chihuahua,32160,Mexico,"Smart, Calle Cloro, Postal, 32160 Ciudad Juárez, CHH, Mexico",,,1685.0
51616067542a9f5ac0592010bf0de7be3f40f00103f901bdde024d0200000092030d4c61204d6963686f6163616e61,La Michoacana,31.7457131,-106.4869586,"commercial, commercial.food_and_drink, commercial.food_and_drink.drinks",La Michoacana,"Ingeniero David Herrera, 32001 Ciudad Juárez, CHH, Mexico",Ciudad Juárez,Chihuahua,32001,Mexico,"La Michoacana, Ingeniero David Herrera, 32001 Ciudad Juárez, CHH, Mexico",,,1804.0
511215ce5f199f5ac05954432ba2dcbe3f40f00102f901803d9f2f00000000,,31.7455541,-106.48592372060037,"building, building.commercial, commercial",Calle Ingeniero David Herrera,"32001 Ciudad Juárez, CHH, Mexico",Ciudad Juárez,Chihuahua,32001,Mexico,"Calle Ingeniero David Herrera, 32001 Ciudad Juárez, CHH, Mexico",,,1807.0
51d23f264f249f5ac05972899f16debe3f40f00102f9017d3d9f2f00000000,,31.7455763,-106.48659113631518,"building, building.commercial, commercial",Calle Ignacio Mariscal,"32001 Ciudad Juárez, CHH, Mexico",Ciudad Juárez,Chihuahua,32001,Mexico,"Calle Ignacio Mariscal, 32001 Ciudad Juárez, CHH, Mexico",,,1811.0
5174b14a3f1a9f5ac059a64c7a8ad2be3f40f00102f901813d9f2f00000000,,31.7454001,-106.48597700399642,"building, building.commercial, commercial",Calle Azucenas,"32001 Ciudad Juárez, CHH, Mexico",Ciudad Juárez,Chihuahua,32001,Mexico,"Calle Azucenas, 32001 Ciudad Juárez, CHH, Mexico",,,1818.0
51d56c52b1239f5ac059e6d3737dd5be3f40f00102f9017e3d9f2f00000000,,31.745445099999998,-106.48655350732164,"building, building.commercial, commercial",Avenida Benito Juárez,"32001 Ciudad Juárez, CHH, Mexico",Ciudad Juárez,Chihuahua,32001,Mexico,"Avenida Benito Juárez, 32001 Ciudad Juárez, CHH, Mexico",,,1820.0
51fdeca451349f5ac05998ef8af73ec73f40f00102f901903e022000000000920308372d456c6576656e,7-Eleven,31.77830455,-106.48756829362897,"building, building.commercial, commercial, commercial.convenience",7-Eleven,"East Schuster Avenue, El Paso, TX 79902, United States of America",El Paso,Texas,79902,United States,"7-Eleven, East Schuster Avenue, El Paso, TX 79902, United States of America",,,1826.0
514cc63192bd9e5ac059384161b1f2be3f40f00103f901b15fdeba00000000,,31.7458907,-106.4803205,"commercial, commercial.convenience",Calle Ingeniero David Herrera,"32300 Ciudad Juárez, CHH, Mexico",Ciudad Juárez,Chihuahua,32300,Mexico,"Calle Ingeniero David Herrera, 32300 Ciudad Juárez, CHH, Mexico",,,1830.0
51ae66502e249f5ac059dde7add1cdbe3f40f00102f9017f3d9f2f00000000,,31.745328049999998,-106.48658330775898,"building, building.commercial, commercial",Calle Azucenas,"32001 Ciudad Juárez, CHH, Mexico",Ciudad Juárez,Chihuahua,32001,Mexico,"Calle Azucenas, 32001 Ciudad Juárez, CHH, Mexico",,,1834.0
51c6e0cce8189f5ac059de05938dbdbe3f40f00102f901823d9f2f00000000,,31.74507985,-106.48589534766789,"building, building.commercial, commercial",Calle Manuel Doblado,"32001 Ciudad Juárez, CHH, Mexico",Ciudad Juárez,Chihuahua,32001,Mexico,"Calle Manuel Doblado, 32001 Ciudad Juárez, CHH, Mexico",,,1851.0
518624b795199f5ac05980c09613b4be3f40f00102f901833d9f2f00000000,,31.744935249999997,-106.48593657383945,"building, building.commercial, commercial",Calle Manuel Doblado,"32001 Ciudad Juárez, CHH, Mexico",Ciudad Juárez,Chihuahua,32001,Mexico,"Calle Manuel Doblado, 32001 Ciudad Juárez, CHH, Mexico",,,1870.0
518f033b12179f5ac0594fe756c4b0be3f40f00102f901843d9f2f00000000,,31.744884749999997,-106.48578315508917,"building, building.commercial, commercial",Calle Manuel Doblado,"32001 Ciudad Juárez, CHH, Mexico",Ciudad Juárez,Chihuahua,32001,Mexico,"Calle Manuel Doblado, 32001 Ciudad Juárez, CHH, Mexico",,,1876.0
51accc0afdfa9d5ac05984e22ac198c03f40f00102f9011a3bac310000000092030f54617175696c6c6120536f6d627261,Taquilla Sombra,31.75233085,-106.46844411902083,"building, building.commercial, commercial, commercial.tickets_and_lottery",Taquilla Sombra,"Avenida Rafael P. Serna, 32317 Ciudad Juárez, CHH, Mexico",Ciudad Juárez,Chihuahua,32317,Mexico,"Taquilla Sombra, Avenida Rafael P. Serna, 32317 Ciudad Juárez, CHH, Mexico",,,1888.0
516f66266a179f5ac0598aa89f3da8be3f40f00102f901853d9f2f00000000,,31.74475465,-106.48580411672604,"building, building.commercial, commercial",Calle Manuel Doblado,"32001 Ciudad Juárez, CHH, Mexico",Ciudad Juárez,Chihuahua,32001,Mexico,"Calle Manuel Doblado, 32001 Ciudad Juárez, CHH, Mexico",,,1890.0
51aeb1f09afc9d5ac059d640ea7c89c03f40f00103f9013ca3068601000000920313427261766f7469656e6461206f66696369616c,Bravotienda oficial,31.7520979,-106.4685428,"commercial, commercial.outdoor_and_sport",Bravotienda oficial,"Avenida Rafael P. Serna, 32317 Ciudad Juárez, CHH, Mexico",Ciudad Juárez,Chihuahua,32317,Mexico,"Bravotienda oficial, Avenida Rafael P. Serna, 32317 Ciudad Juárez, CHH, Mexico",,,1901.0
5159250b64199f5ac0597b970ddda2be3f40f00102f901501151250000000092030844656c2052c3ad6f,Del Río,31.7446726,-106.48592473114458,"building, building.commercial, commercial, commercial.convenience",Del Río,"Calle Tlaxcala, 32001 Ciudad Juárez, CHH, Mexico",Ciudad Juárez,Chihuahua,32001,Mexico,"Del Río, Calle Tlaxcala, 32001 Ciudad Juárez, CHH, Mexico",,,1906.0
518453beb5169f5ac0599991dadb88be3f40f00102f90151115125000000009203044f78786f,Oxxo,31.744275799999997,-106.48576110445546,"building, building.commercial, commercial, commercial.convenience",Oxxo,"Calle Manuel Doblado, 32001 Ciudad Juárez, CHH, Mexico",Ciudad Juárez,Chihuahua,32001,Mexico,"Oxxo, Calle Manuel Doblado, 32001 Ciudad Juárez, CHH, Mexico",https://www.oxxo.com/tiendas?cr=50QEW,,1942.0
51ccd9d2e900a05ac059e0a96af420c63f40f00102f901ce3e022000000000920308436972636c65204b,Circle K,31.77394035,-106.50005574789901,"building, building.commercial, commercial, commercial.convenience",Circle K,"North Mesa Street, El Paso, TX 79902, United States of America",El Paso,Texas,79902,United States,"Circle K, North Mesa Street, El Paso, TX 79902, United States of America",,,1946.0
511ed66542dd9f5ac059fe7cfe8183bf3f40f00103f901a765b43001000000,,31.7481004,-106.4978796,"commercial, commercial.convenience",Calle Azucenas,"Durango, 32160 Ciudad Juárez, CHH, Mexico",Ciudad Juárez,Chihuahua,32160,Mexico,"Calle Azucenas, Durango, 32160 Ciudad Juárez, CHH, Mexico",,,1957.0
51bb0fa239149f5ac0595486af6b7bbe3f40f00102f901863d9f2f00000000,,31.74407075,-106.48560944391551,"building, building.commercial, commercial",Calle Cristóbal Colón,"32001 Ciudad Juárez, CHH, Mexico",Ciudad Juárez,Chihuahua,32001,Mexico,"Calle Cristóbal Colón, 32001 Ciudad Juárez, CHH, Mexico",,,1965.0
51dededa2e599e5ac059719d061225bf3f40f00103f9014ec753ef00000000,,31.7466594,-106.4741933,"commercial, commercial.convenience",Calle Ingeniero David Herrera,"32300 Ciudad Juárez, CHH, Mexico",Ciudad Juárez,Chihuahua,32300,Mexico,"Calle Ingeniero David Herrera, 32300 Ciudad Juárez, CHH, Mexico",,,1976.0
51ae5155fa3f9e5ac059847b7621c2c63f40f00102f9017c7b50410000000092030741726d6f697265,Armoire,31.7763997,-106.4726548989481,"building, building.commercial, commercial, commercial.clothing, commercial.clothing.clothes",Armoire,"Montana Avenue, El Paso, TX 79901, United States of America",El Paso,Texas,79901,United States,"Armoire, Montana Avenue, El Paso, TX 79901, United States of America",,,1980.0
51da468958ec9f5ac059d214ffd890bf3f40f00102f9014bffdd46000000009203044f78786f,Oxxo,31.74830395,-106.49880040555891,"building, building.commercial, commercial, commercial.convenience",Oxxo,"Calle Bario, Durango, 32160 Ciudad Juárez, CHH, Mexico",Ciudad Juárez,Chihuahua,32160,Mexico,"Oxxo, Calle Bario, Durango, 32160 Ciudad Juárez, CHH, Mexico",https://www.oxxo.com/tiendas?cr=50V5M,,1984.0
51163d24a5129f5ac0599a915dca65be3f40f00102f901873d9f2f00000000,,31.7437407,-106.48551300562791,"building, building.commercial, commercial",Calle Cristóbal Colón,"32001 Ciudad Juárez, CHH, Mexico",Ciudad Juárez,Chihuahua,32001,Mexico,"Calle Cristóbal Colón, 32001 Ciudad Juárez, CHH, Mexico",,,1995.0
5165f3829900a05ac0597358b7ecc6bf3f40f00103f90160e20892020000009203054578747261,Extra,31.7491291,-106.5000366,"commercial, commercial.convenience",Extra,"Calle Bismuto, Durango, 32160 Ciudad Juárez, CHH, Mexico",Ciudad Juárez,Chihuahua,32160,Mexico,"Extra, Calle Bismuto, Durango, 32160 Ciudad Juárez, CHH, Mexico",,,2009.0
510608de1e11a05ac0595f76dedd25c63f40f00102f901c590a21b00000000920306537072696e74,Sprint,31.774015300000002,-106.50104495699642,"building, building.commercial, commercial, commercial.elektronics",Sprint,"Kerbey Avenue, El Paso, TX 79902, United States of America",El Paso,Texas,79902,United States,"Sprint, Kerbey Avenue, El Paso, TX 79902, United States of America",,,2019.0
51318518f906a05ac05998f252b7c4bf3f40f00103f90161e208920200000092031041626172726f746573204b6172656c79,Abarrotes Karely,31.7490954,-106.5004256,"commercial, commercial.convenience",Abarrotes Karely,"Calle Azucenas, Durango, 32160 Ciudad Juárez, CHH, Mexico",Ciudad Juárez,Chihuahua,32160,Mexico,"Abarrotes Karely, Calle Azucenas, Durango, 32160 Ciudad Juárez, CHH, Mexico",,,2038.0
519c947a5f109f5ac0594a8094de48be3f40f00102f901883d9f2f00000000,,31.743299399999998,-106.485374326427,"building, building.commercial, commercial",Calle Manuel Doblado,"32001 Ciudad Juárez, CHH, Mexico",Ciudad Juárez,Chihuahua,32001,Mexico,"Calle Manuel Doblado, 32001 Ciudad Juárez, CHH, Mexico",,,2050.0
51f1a64c0e179f5ac0599c2c437d37be3f40f00102f901461151250000000092030f426f74617320656c20446f7261646f,Botas el Dorado,31.743034199999997,-106.48578221784172,"building, building.commercial, commercial, commercial.clothing, commercial.clothing.clothes",Botas el Dorado,"Avenida Benito Juárez, 32001 Ciudad Juárez, CHH, Mexico",Ciudad Juárez,Chihuahua,32001,Mexico,"Botas el Dorado, Avenida Benito Juárez, 32001 Ciudad Juárez, CHH, Mexico",,,2082.0
51583449ad0f9f5ac059ded8d5a02fbe3f40f00102f9015c1151250000000092030a546f726f20426f6f7473,Toro Boots,31.74291425,-106.48533184193492,"building, building.commercial, commercial, commercial.clothing, commercial.clothing.clothes",Toro Boots,"Avenida Benito Juárez, 32001 Ciudad Juárez, CHH, Mexico",Ciudad Juárez,Chihuahua,32001,Mexico,"Toro Boots, Avenida Benito Juárez, 32001 Ciudad Juárez, CHH, Mexico",,,2095.0
5198755a12fb9e5ac0595e91dcb133be3f40f00103f90159fb2f7f010000009203044f78786f,Oxxo,31.7429763,-106.4840742,"commercial, commercial.convenience",Oxxo,"Calle Rivas Guillén, 32001 Ciudad Juárez, CHH, Mexico",Ciudad Juárez,Chihuahua,32001,Mexico,"Oxxo, Calle Rivas Guillén, 32001 Ciudad Juárez, CHH, Mexico",https://www.oxxo.com/tiendas?cr=50S1P,,2100.0
5152e7f6370da05ac0597ad5bf4c80c63f40f00103f90162f4d40f0200000092030e446f6c6c61722047656e6572616c,Dollar General,31.7753952,-106.5008068,"commercial, commercial.discount_store",Dollar General,"2400 North Mesa Street, El Paso, TX 79902, United States of America",El Paso,Texas,79902,United States,"Dollar General, 2400 North Mesa Street, El Paso, TX 79902, United States of America",https://www.dollargeneral.com/store-directory/tx/el-paso/6764,,2117.0
513328e494ca9d5ac059bbb5fe0879c53f40f00103f901e5f84ffd02000000920313517569726f6761277320426f64792053686f70,Quiroga's Body Shop,31.7713781,-106.4654896,"commercial, service, service.vehicle, service.vehicle.repair, service.vehicle.repair.car",Quiroga's Body Shop,"2124 Myrtle Avenue, El Paso, TX 79901, United States of America",El Paso,Texas,79901,United States,"Quiroga's Body Shop, 2124 Myrtle Avenue, El Paso, TX 79901, United States of America",,,2126.0
5186154e3b0c9f5ac059a85d02070fbe3f40f00102f901893d9f2f00000000,,31.7424168,-106.48512156129263,"building, building.commercial, commercial",Avenida Benito Juárez,"32001 Ciudad Juárez, CHH, Mexico",Ciudad Juárez,Chihuahua,32001,Mexico,"Avenida Benito Juárez, 32001 Ciudad Juárez, CHH, Mexico",,,2154.0
511b0c25c50b9f5ac059465a858906be3f40f00102f901611151250000000092030c437269736d6120426f6f7473,Crisma Boots,31.74228725,-106.48509338968182,"building, building.commercial, commercial, commercial.clothing, commercial.clothing.clothes",Crisma Boots,"Avenida Benito Juárez, 32001 Ciudad Juárez, CHH, Mexico",Ciudad Juárez,Chihuahua,32001,Mexico,"Crisma Boots, Avenida Benito Juárez, 32001 Ciudad Juárez, CHH, Mexico",,,2168.0
51dda546d3099f5ac0595f146586e8bd3f40f00102f9018d3d9f2f00000000,,31.7418293,-106.48497468852243,"building, building.commercial, commercial",Avenida Benito Juárez,"32001 Ciudad Juárez, CHH, Mexico",Ciudad Juárez,Chihuahua,32001,Mexico,"Avenida Benito Juárez, 32001 Ciudad Juárez, CHH, Mexico",,,2217.0
51fc8c4bb0119f5ac059756ee0cad9bd3f40f00102f9014311512500000000,,31.7416045,-106.48545462968828,"building, building.commercial, commercial, service, service.beauty, service.beauty.hairdresser",Calle Profesora María Martínez,"32001 Ciudad Juárez, CHH, Mexico",Ciudad Juárez,Chihuahua,32001,Mexico,"Calle Profesora María Martínez, 32001 Ciudad Juárez, CHH, Mexico",,,2239.0
51fbf32334b89e5ac0592dea71e5fdbd3f40f00103f901228c54ef00000000,,31.7421554,-106.4799929,"commercial, commercial.convenience",Calle Ignacio Mejía,"32001 Ciudad Juárez, CHH, Mexico",Ciudad Juárez,Chihuahua,32001,Mexico,"Calle Ignacio Mejía, 32001 Ciudad Juárez, CHH, Mexico",,,2240.0
5164259ccc2ea05ac0595b27ea2d8ac63f40f00102f9017876722a00000000920306537065632773,Spec's,31.77554595,-106.50285640000001,"building, building.commercial, commercial, commercial.food_and_drink, commercial.food_and_drink.drinks",Spec's,"North Oregon Street, El Paso, TX 79902, United States of America",El Paso,Texas,79902,United States,"Spec's, North Oregon Street, El Paso, TX 79902, United States of America",,,2245.0
51b6a9eae6089f5ac0597ead51cbd6bd3f40f00102f90166115125000000009203084e6577206c6f6f6b,New look,31.741558750000003,-106.48491833607008,"building, building.commercial, commercial, commercial.health_and_beauty, commercial.health_and_beauty.optician",New look,"Avenida Benito Juárez, 32001 Ciudad Juárez, CHH, Mexico",Ciudad Juárez,Chihuahua,32001,Mexico,"New look, Avenida Benito Juárez, 32001 Ciudad Juárez, CHH, Mexico",,,2246.0
51c6c03a8e1fa05ac059bfbec590adc63f40f00103f90198f0ebf101000000920310496e736f6d6e696120436f6f6b696573,Insomnia Cookies,31.7760859,-106.501926,"commercial, commercial.food_and_drink, commercial.food_and_drink.bakery",Insomnia Cookies,"North Mesa Street, El Paso, TX 79902, United States of America",El Paso,Texas,79902,United States,"Insomnia Cookies, North Mesa Street, El Paso, TX 79902, United States of America",,,2246.0
510411e733109f5ac05932be9025cebd3f40f00102f9014211512500000000920306506175696e61,Pauina,31.7414268,-106.48536393704495,"building, building.commercial, commercial, commercial.books",Pauina,"Avenida Benito Juárez, 32001 Ciudad Juárez, CHH, Mexico",Ciudad Juárez,Chihuahua,32001,Mexico,"Pauina, Avenida Benito Juárez, 32001 Ciudad Juárez, CHH, Mexico",,,2260.0
514e78f503069f5ac059ab481f0ac1bd3f40f00102f9018e3d9f2f00000000,,31.7412268,-106.48474215480493,"building, building.commercial, commercial",Avenida Benito Juárez,"32001 Ciudad Juárez, CHH, Mexico",Ciudad Juárez,Chihuahua,32001,Mexico,"Avenida Benito Juárez, 32001 Ciudad Juárez, CHH, Mexico",,,2284.0
51a29b1dd5069f5ac059c055276dbbbd3f40f00102f9018f3d9f2f00000000,,31.741141149999997,-106.4847920216694,"building, building.commercial, commercial",Avenida Benito Juárez,"32001 Ciudad Juárez, CHH, Mexico",Ciudad Juárez,Chihuahua,32001,Mexico,"Avenida Benito Juárez, 32001 Ciudad Juárez, CHH, Mexico",,,2296.0
51901a248e069f5ac059af3e5d99b7bd3f40f00102f901913d9f2f00000000,,31.74108275,-106.48477510000001,"building, building.commercial, commercial",Avenida Benito Juárez,"32001 Ciudad Juárez, CHH, Mexico",Ciudad Juárez,Chihuahua,32001,Mexico,"Avenida Benito Juárez, 32001 Ciudad Juárez, CHH, Mexico",,,2303.0
51bc6edf91059f5ac0590a1951e0aebd3f40f00102f901923d9f2f00000000,,31.74094965,-106.484714954563,"building, building.commercial, commercial",Avenida Benito Juárez,"32001 Ciudad Juárez, CHH, Mexico",Ciudad Juárez,Chihuahua,32001,Mexico,"Avenida Benito Juárez, 32001 Ciudad Juárez, CHH, Mexico",,,2313.0
51bcc0519731a05ac059dc2120d1bac63f40f00103f901d5610136010000009203124b65726e20506c61636520466c6f72697374,Kern Place Florist,31.7762881,-106.5030268,"commercial, commercial.florist",Kern Place Florist,"East Robinson Avenue, El Paso, TX 79902, United States of America",El Paso,Texas,79902,United States,"Kern Place Florist, East Robinson Avenue, El Paso, TX 79902, United States of America",,,2337.0
51fc8e9724059f5ac0593c582d5ba1bd3f40f00102f901933d9f2f00000000,,31.740743350000002,-106.4846889,"building, building.commercial, commercial",Avenida Benito Juárez,"32001 Ciudad Juárez, CHH, Mexico",Ciudad Juárez,Chihuahua,32001,Mexico,"Avenida Benito Juárez, 32001 Ciudad Juárez, CHH, Mexico",,,2339.0
51d1802d8f039f5ac0595ecb37f29bbd3f40f00102f901943d9f2f00000000,,31.7406608,-106.48459224170372,"building, building.commercial, commercial",Avenida Benito Juárez,"32001 Ciudad Juárez, CHH, Mexico",Ciudad Juárez,Chihuahua,32001,Mexico,"Avenida Benito Juárez, 32001 Ciudad Juárez, CHH, Mexico",,,2347.0
5186b96def029f5ac059f22d6ea994bd3f40f00102f901953d9f2f00000000,,31.74054965,-106.48455415454201,"building, building.commercial, commercial",Avenida Benito Juárez,"32001 Ciudad Juárez, CHH, Mexico",Ciudad Juárez,Chihuahua,32001,Mexico,"Avenida Benito Juárez, 32001 Ciudad Juárez, CHH, Mexico",,,2357.0
51c77c40a033a05ac059c8bab8a4c5c63f40f00103f901d9610136010000009203114d6574726f20627920542d4d6f62696c65,Metro by T-Mobile,31.7764533,-106.503151,"commercial, commercial.elektronics",Metro by T-Mobile,"North Mesa Street, El Paso, TX 79902, United States of America",El Paso,Texas,79902,United States,"Metro by T-Mobile, North Mesa Street, El Paso, TX 79902, United States of America",https://www.metrobyt-mobile.com/stores/bd/metro-by-t-mobile-el-paso-tx-10230980/,,2358.0
51e8a965c50a9f5ac0594899194d89bd3f40f00102f9013e115125000000009203124a75c3a172657a20536d6f6b652053686f70,Juárez Smoke Shop,31.7403763,-106.48503241470428,"building, building.commercial, commercial, commercial.smoking",Juárez Smoke Shop,"Avenida Benito Juárez, 32001 Ciudad Juárez, CHH, Mexico",Ciudad Juárez,Chihuahua,32001,Mexico,"Juárez Smoke Shop, Avenida Benito Juárez, 32001 Ciudad Juárez, CHH, Mexico",,,2376.0
51a8a2789535a05ac0591de75850cec63f40f00103f901d761013601000000920303474e43,GNC,31.7765856,-106.5032705,"commercial, commercial.health_and_beauty",GNC,"Cincinnati Avenue, El Paso, TX 79902, United States of America",El Paso,Texas,79902,United States,"GNC, Cincinnati Avenue, El Paso, TX 79902, United States of America",,,2376.0
51a6064e62199f5ac059f904ce6971bd3f40f00102f9014c06963000000000920306436f7070656c,Coppel,31.740011799999998,-106.48592431659436,"building, building.commercial, commercial, commercial.department_store",Coppel,"Calle Noche Triste, 32001 Ciudad Juárez, CHH, Mexico",Ciudad Juárez,Chihuahua,32001,Mexico,"Coppel, Calle Noche Triste, 32001 Ciudad Juárez, CHH, Mexico",,,2388.0
516326512ff89e5ac059aa9e11bc7cbd3f40f00102f901a13d9f2f00000000,,31.740184550000002,-106.483898,"building, building.commercial, commercial",Avenida Francisco Villa,"32001 Ciudad Juárez, CHH, Mexico",Ciudad Juárez,Chihuahua,32001,Mexico,"Avenida Francisco Villa, 32001 Ciudad Juárez, CHH, Mexico",,,2400.0
51f4e56091ba9d5ac059cf943a73c5bf3f40f00103f901b05fdeba00000000,,31.7491066,-106.4645122,"commercial, commercial.convenience",Calle Ingeniero David Herrera,"32300 Ciudad Juárez, CHH, Mexico",Ciudad Juárez,Chihuahua,32300,Mexico,"Calle Ingeniero David Herrera, 32300 Ciudad Juárez, CHH, Mexico",,,2404.0
5128489289009f5ac059c8c475ed77bd3f40f00102f9016c1151250000000092030a436173612047616c6573,Casa Gales,31.7401112,-106.48440779958094,"building, building.commercial, commercial, commercial.hobby, commercial.hobby.art",Casa Gales,"Abraham González, 32001 Ciudad Juárez, CHH, Mexico",Ciudad Juárez,Chihuahua,32001,Mexico,"Casa Gales, Abraham González, 32001 Ciudad Juárez, CHH, Mexico",,,2405.0
5188ecb879f79e5ac0597c39d68173bd3f40f00102f901a03d9f2f00000000,,31.740043749999998,-106.48385470446567,"building, building.commercial, commercial",Avenida Francisco Villa,"32001 Ciudad Juárez, CHH, Mexico",Ciudad Juárez,Chihuahua,32001,Mexico,"Avenida Francisco Villa, 32001 Ciudad Juárez, CHH, Mexico",,,2418.0
514dd246b5f79e5ac059b77bdc7360bd3f40f00102f9019d3d9f2f00000000,,31.739753,-106.48386890331423,"building, building.commercial, commercial, commercial.shopping_mall",Calle M. Doblado,"32001 Ciudad Juárez, CHH, Mexico",Ciudad Juárez,Chihuahua,32001,Mexico,"Calle M. Doblado, 32001 Ciudad Juárez, CHH, Mexico",,,2423.0
510751ad74ada05ac0599ac88d83b7c23f40f00103f90113a869f500000000,,31.7606127,-106.5105869,"commercial, commercial.convenience",Calle Secoya,"Felipe Ángeles, 32100 Ciudad Juárez, CHH, Mexico",Ciudad Juárez,Chihuahua,32100,Mexico,"Calle Secoya, Felipe Ángeles, 32100 Ciudad Juárez, CHH, Mexico",,,2428.0
51dea9ce17f69e5ac0598271930d6bbd3f40f00102f9019f3d9f2f00000000,,31.73991475,-106.48377032453524,"building, building.commercial, commercial",Avenida Francisco Villa,"32001 Ciudad Juárez, CHH, Mexico",Ciudad Juárez,Chihuahua,32001,Mexico,"Avenida Francisco Villa, 32001 Ciudad Juárez, CHH, Mexico",,,2431.0
5181bf422d009f5ac059b9bd5b7061bd3f40f00102f901983d9f2f00000000,,31.739768050000002,-106.48438579100004,"building, building.commercial, commercial",Avenida Benito Juárez,"32001 Ciudad Juárez, CHH, Mexico",Ciudad Juárez,Chihuahua,32001,Mexico,"Avenida Benito Juárez, 32001 Ciudad Juárez, CHH, Mexico",,,2445.0
5152e2df0c239f5ac059b8ece99568bd3f40f00103f901f5c6d4c50100000092030844656c2052c3ad6f,Del Río,31.7398771,-106.4865143,"commercial, commercial.convenience",Del Río,"Calle Segunda de Ugarte, 32001 Ciudad Juárez, CHH, Mexico",Ciudad Juárez,Chihuahua,32001,Mexico,"Del Río, Calle Segunda de Ugarte, 32001 Ciudad Juárez, CHH, Mexico",,,2446.0
512ea3dd04129f5ac059f9e5ef9a57bd3f40f00102f9014a0696300000000092030654656c63656c,Telcel,31.739618,-106.48547479290275,"building, building.commercial, commercial, commercial.elektronics",Telcel,"Calle Segunda de Ugarte, 32001 Ciudad Juárez, CHH, Mexico",Ciudad Juárez,Chihuahua,32001,Mexico,"Telcel, Calle Segunda de Ugarte, 32001 Ciudad Juárez, CHH, Mexico",,,2448.0
51c762a72d239f5ac05918d204465ebd3f40f00102f9014006963000000000,,31.73971975,-106.48652211519504,"building, building.commercial, commercial, commercial.outdoor_and_sport, commercial.outdoor_and_sport.bicycle",Calle Venustiano Carranza,"32001 Ciudad Juárez, CHH, Mexico",Ciudad Juárez,Chihuahua,32001,Mexico,"Calle Venustiano Carranza, 32001 Ciudad Juárez, CHH, Mexico",,,2456.0
51e5f9c21a1d9f5ac0594b00b5685cbd3f40f00103f901e3fd2f7f0100000092030550616e616d,Panam,31.7396913,-106.4861514,"commercial, commercial.clothing, commercial.clothing.shoes",Panam,"Calle Segunda de Ugarte, 32001 Ciudad Juárez, CHH, Mexico",Ciudad Juárez,Chihuahua,32001,Mexico,"Panam, Calle Segunda de Ugarte, 32001 Ciudad Juárez, CHH, Mexico",,,2465.0
516d5a88432c9f5ac0598e6dbf8245bd3f40f00102f9012b11512500000000920317506c617a61206465206c61205465636e6f6c6f67c3ad61,Plaza de la Tecnología,31.7393419,-106.48707664790865,"building, building.commercial, commercial, commercial.shopping_mall",Plaza de la Tecnología,"Calle Donato Guerra, Durango, 32160 Ciudad Juárez, CHH, Mexico",Ciudad Juárez,Chihuahua,32160,Mexico,"Plaza de la Tecnología, Calle Donato Guerra, Durango, 32160 Ciudad Juárez, CHH, Mexico",,,2469.0
51fe751660fd9e5ac0597101696050bd3f40f00102f901993d9f2f00000000,,31.7395077,-106.4842148036332,"building, building.commercial, commercial",Calle M. Doblado,"32001 Ciudad Juárez, CHH, Mexico",Ciudad Juárez,Chihuahua,32001,Mexico,"Calle M. Doblado, 32001 Ciudad Juárez, CHH, Mexico",,,2471.0
51cc52fc291f9f5ac0599f59b8b255bd3f40f00103f901e2fd2f7f010000009203054469766173,Divas,31.7395889,-106.4862771,"commercial, commercial.clothing, commercial.clothing.clothes",Divas,"Calle Venustiano Carranza, 32001 Ciudad Juárez, CHH, Mexico",Ciudad Juárez,Chihuahua,32001,Mexico,"Divas, Calle Venustiano Carranza, 32001 Ciudad Juárez, CHH, Mexico",,,2477.0
518a183649dd9e5ac05992cf1b3e44bd3f40f00102f901b93c283000000000920307456c656b747261,Elektra,31.73932255,-106.48225622446824,"building, building.commercial, commercial, commercial.department_store",Elektra,"Calle Pino Suárez, 32001 Ciudad Juárez, CHH, Mexico",Ciudad Juárez,Chihuahua,32001,Mexico,"Elektra, Calle Pino Suárez, 32001 Ciudad Juárez, CHH, Mexico",https://www.elektra.mx,,2483.0
510fd88b570f9f5ac05941cc04c94cbd3f40f00103f9010cc7d4c501000000920314536b656c65746f20526f636b202620536b617465,Skeleto Rock & Skate,31.7394529,-106.4853114,"commercial, commercial.clothing, commercial.clothing.clothes",Skeleto Rock & Skate,"Calle Segunda de Ugarte, 32001 Ciudad Juárez, CHH, Mexico",Ciudad Juárez,Chihuahua,32001,Mexico,"Skeleto Rock & Skate, Calle Segunda de Ugarte, 32001 Ciudad Juárez, CHH, Mexico",,,2489.0
512f20c54a169f5ac05987ac14084cbd3f40f00103f901dbfd2f7f0100000092030f53657267696fc2b47320426f6f7473,Sergio´s Boots,31.7394414,-106.4857356,"commercial, commercial.clothing, commercial.clothing.shoes",Sergio´s Boots,"Calle Segunda de Ugarte, 32001 Ciudad Juárez, CHH, Mexico",Ciudad Juárez,Chihuahua,32001,Mexico,"Sergio´s Boots, Calle Segunda de Ugarte, 32001 Ciudad Juárez, CHH, Mexico",,,2491.0
51cbf33ba81f9f5ac059de73177849bd3f40f00103f901e1fd2f7f01000000920318417274c3ad63756c6f73206465205049656c204368617661,Artículos de PIel Chava,31.7394023,-106.4863072,"commercial, commercial.clothing, commercial.clothing.clothes",Artículos de PIel Chava,"Calle Venustiano Carranza, 32001 Ciudad Juárez, CHH, Mexico",Ciudad Juárez,Chihuahua,32001,Mexico,"Artículos de PIel Chava, Calle Venustiano Carranza, 32001 Ciudad Juárez, CHH, Mexico",,,2498.0
51f2ca7778a09e5ac059e6a695a36cbd3f40f00102f9015c1a9d300000000092031144756c636573206465204dc3a97869636f,Dulces de México,31.739938950000003,-106.47854434679519,"building, building.commercial, commercial, commercial.food_and_drink, commercial.food_and_drink.confectionery",Dulces de México,"Calle Germán Valdés, 32001 Ciudad Juárez, CHH, Mexico",Ciudad Juárez,Chihuahua,32001,Mexico,"Dulces de México, Calle Germán Valdés, 32001 Ciudad Juárez, CHH, Mexico",,,2498.0
5166101fd8f19e5ac059fd309efd48bd3f40f00103f9015efb2f7f0100000092030e457374696c697374612041736961,Estilista Asia,31.739395,-106.483511,"commercial, commercial.health_and_beauty, service, service.beauty, service.beauty.spa",Estilista Asia,"Avenida Francisco Villa, 32001 Ciudad Juárez, CHH, Mexico",Ciudad Juárez,Chihuahua,32001,Mexico,"Estilista Asia, Avenida Francisco Villa, 32001 Ciudad Juárez, CHH, Mexico",,,2499.0
51445e9560fe9e5ac059879d63a142bd3f40f00102f9019a3d9f2f00000000,,31.73929795,-106.4842759569811,"building, building.commercial, commercial",Calle Unión,"32001 Ciudad Juárez, CHH, Mexico",Ciudad Juárez,Chihuahua,32001,Mexico,"Calle Unión, 32001 Ciudad Juárez, CHH, Mexico",,,2499.0
51065de0fed49e5ac0590d901f414cbd3f40f00102f901bd3c28300000000092030a56696c6c61727265616c,Villarreal,31.7394448,-106.48175022039877,"building, building.commercial, commercial, commercial.health_and_beauty, commercial.health_and_beauty.optician",Villarreal,"Avenida Lerdo, 32001 Ciudad Juárez, CHH, Mexico",Ciudad Juárez,Chihuahua,32001,Mexico,"Villarreal, Avenida Lerdo, 32001 Ciudad Juárez, CHH, Mexico",,,2503.0
51c6908a76e29e5ac059e11cafa140bd3f40f00102f901b73c28300000000092030844656c2052c3ad6f,Del Río,31.73926745,-106.48257220775403,"building, building.commercial, commercial, commercial.convenience",Del Río,"Avenida 16 de Septiembre, 32001 Ciudad Juárez, CHH, Mexico",Ciudad Juárez,Chihuahua,32001,Mexico,"Del Río, Avenida 16 de Septiembre, 32001 Ciudad Juárez, CHH, Mexico",,,2505.0
51d0d27025169f5ac0598d181c2b42bd3f40f00103f901dafd2f7f0100000092030f426f7461732053616e74612046c3a9,Botas Santa Fé,31.7392909,-106.4857267,"commercial, commercial.clothing, commercial.clothing.shoes",Botas Santa Fé,"Calle Noche Triste, 32001 Ciudad Juárez, CHH, Mexico",Ciudad Juárez,Chihuahua,32001,Mexico,"Botas Santa Fé, Calle Noche Triste, 32001 Ciudad Juárez, CHH, Mexico",,,2508.0
513b7f3a35bea05ac059d3e7e68d49c33f40f00102f9016fcec50f0000000092030744656c2052696f,Del Rio,31.7628411,-106.51160937035176,"building, building.commercial, commercial, commercial.convenience",Del Rio,"Calle Sabinas, Felipe Ángeles, 32100 Ciudad Juárez, CHH, Mexico",Ciudad Juárez,Chihuahua,32100,Mexico,"Del Rio, Calle Sabinas, Felipe Ángeles, 32100 Ciudad Juárez, CHH, Mexico",,,2508.0
51386a77b49c9e5ac059bcb6da7f64bd3f40f00102f9015b1a9d300000000092030c43617361204d656e646f7a61,Casa Mendoza,31.73981475,-106.47831451093306,"building, building.commercial, commercial, commercial.hobby, commercial.hobby.art",Casa Mendoza,"Calle Germán Valdés, 32001 Ciudad Juárez, CHH, Mexico",Ciudad Juárez,Chihuahua,32001,Mexico,"Casa Mendoza, Calle Germán Valdés, 32001 Ciudad Juárez, CHH, Mexico",,,2512.0
51312e6695e39f5ac0596eda7b0805be3f40f00103f9013379f7be0000000092030744656c2052696f,Del Rio,31.7422643,-106.4982656,"commercial, commercial.convenience",Del Rio,"Calle Cromo, Durango, 32160 Ciudad Juárez, CHH, Mexico",Ciudad Juárez,Chihuahua,32160,Mexico,"Del Rio, Calle Cromo, Durango, 32160 Ciudad Juárez, CHH, Mexico",,,2514.0
51305232aaab9e5ac059155d842f5dbd3f40f00102f901541a9d300000000092030a4c612053756261737461,La Subasta,31.73970315,-106.47922758974235,"building, building.commercial, commercial, commercial.food_and_drink, commercial.food_and_drink.butcher",La Subasta,"Calle Germán Valdés, 32001 Ciudad Juárez, CHH, Mexico",Ciudad Juárez,Chihuahua,32001,Mexico,"La Subasta, Calle Germán Valdés, 32001 Ciudad Juárez, CHH, Mexico",,,2515.0
518b971359109f5ac0597ed977a63cbd3f40f00103f901d4fd2f7f0100000092030844656c2052c3ad6f,Del Río,31.7392067,-106.4853728,"commercial, commercial.convenience",Del Río,"Calle Segunda de Ugarte, 32001 Ciudad Juárez, CHH, Mexico",Ciudad Juárez,Chihuahua,32001,Mexico,"Del Río, Calle Segunda de Ugarte, 32001 Ciudad Juárez, CHH, Mexico",,,2517.0
51be6081f9f59e5ac059dde1b0953cbd3f40f00103f9015dfb2f7f0100000092030e5072c3a97374616d6f7320536f6c,Préstamos Sol,31.7392057,-106.4837631,"commercial, service, service.financial, service.financial.money_lender",Préstamos Sol,"Avenida 16 de Septiembre, 32001 Ciudad Juárez, CHH, Mexico",Ciudad Juárez,Chihuahua,32001,Mexico,"Préstamos Sol, Avenida 16 de Septiembre, 32001 Ciudad Juárez, CHH, Mexico",,,2519.0
5107c90318d69e5ac05944e9a0073ebd3f40f00102f901bf3c28300000000092030a56696c6c61727265616c,Villarreal,31.739227749999998,-106.48181724900869,"building, building.commercial, commercial, commercial.furniture_and_interior",Villarreal,"Calle Pino Suárez, 32001 Ciudad Juárez, CHH, Mexico",Ciudad Juárez,Chihuahua,32001,Mexico,"Villarreal, Calle Pino Suárez, 32001 Ciudad Juárez, CHH, Mexico",,,2521.0
51e129b541ce9e5ac0598f529e353fbd3f40f00102f901c33c28300000000092031544756c636572c3ad612047756164616c616a617261,Dulcería Guadalajara,31.739245750000002,-106.48133890811688,"building, building.commercial, commercial, commercial.food_and_drink, commercial.food_and_drink.confectionery",Dulcería Guadalajara,"Avenida Lerdo, 32001 Ciudad Juárez, CHH, Mexico",Ciudad Juárez,Chihuahua,32001,Mexico,"Dulcería Guadalajara, Avenida Lerdo, 32001 Ciudad Juárez, CHH, Mexico",,,2523.0
51442b0075fb9e5ac059ddb2227035bd3f40f00102f901e979e22800000000920308436972636c65204b,Circle K,31.73909665,-106.48409771934992,"building, building.commercial, commercial, commercial.convenience",Circle K,"Avenida 16 de Septiembre, 32001 Ciudad Juárez, CHH, Mexico",Ciudad Juárez,Chihuahua,32001,Mexico,"Circle K, Avenida 16 de Septiembre, 32001 Ciudad Juárez, CHH, Mexico",,,2523.0
518c7804e6c69e5ac0599714c5b13fbd3f40f00102f901c53c283000000000,,31.73925315,-106.48088980137453,"building, building.commercial, commercial, commercial.food_and_drink, commercial.food_and_drink.drinks",Avenida 16 de Septiembre,"32001 Ciudad Juárez, CHH, Mexico",Ciudad Juárez,Chihuahua,32001,Mexico,"Avenida 16 de Septiembre, 32001 Ciudad Juárez, CHH, Mexico",,,2525.0
51ed8c00b8a39e5ac0594eac438545bd3f40f00102f90131b7b417000000009203194d65726361646f204d756e69636970616c204a75c3a172657a,Mercado Municipal Juárez,31.73934205,-106.4787426,"building, building.commercial, commercial, commercial.supermarket",Mercado Municipal Juárez,"Avenida 16 de Septiembre, 32001 Ciudad Juárez, CHH, Mexico",Ciudad Juárez,Chihuahua,32001,Mexico,"Mercado Municipal Juárez, Avenida 16 de Septiembre, 32001 Ciudad Juárez, CHH, Mexico",,,2525.0
51a09229d5f49e5ac059871e211a38bd3f40f00103f9015afb2f7f01000000920313436f6e74696e656e74616c204dc3ba73696361,Continental Música,31.7391373,-106.4836934,"commercial, commercial.hobby, commercial.hobby.music",Continental Música,"Avenida 16 de Septiembre, 32001 Ciudad Juárez, CHH, Mexico",Ciudad Juárez,Chihuahua,32001,Mexico,"Continental Música, Avenida 16 de Septiembre, 32001 Ciudad Juárez, CHH, Mexico",,,2527.0
51309cc651149f5ac059d3327bf035bd3f40f00103f901d8fd2f7f0100000092030e436f7070656c2043616e6164c3a1,Coppel Canadá,31.7391043,-106.4856152,"commercial, commercial.clothing, commercial.clothing.shoes",Coppel Canadá,"Calle Noche Triste, 32001 Ciudad Juárez, CHH, Mexico",Ciudad Juárez,Chihuahua,32001,Mexico,"Coppel Canadá, Calle Noche Triste, 32001 Ciudad Juárez, CHH, Mexico",,,2528.0
512c7b12d81c9f5ac059b119d02236bd3f40f00103f901defd2f7f0100000092030757616c646f2773,Waldo's,31.7391073,-106.4861355,"commercial, commercial.convenience",Waldo's,"Avenida 16 de Septiembre, 32001 Ciudad Juárez, CHH, Mexico",Ciudad Juárez,Chihuahua,32001,Mexico,"Waldo's, Avenida 16 de Septiembre, 32001 Ciudad Juárez, CHH, Mexico",,,2530.0
51bf05d9b2fc9e5ac059a2f6956835bd3f40f00103f9015ffb2f7f010000009203115072c3a97374616d6f73204176616e6365,Préstamos Avance,31.7390962,-106.4841735,"commercial, service, service.financial, service.financial.money_lender",Préstamos Avance,"Avenida 16 de Septiembre, 32001 Ciudad Juárez, CHH, Mexico",Ciudad Juárez,Chihuahua,32001,Mexico,"Préstamos Avance, Avenida 16 de Septiembre, 32001 Ciudad Juárez, CHH, Mexico",,,2530.0
51d9767f611e9f5ac059f63ca8db34bd3f40f00103f901dffd2f7f010000009203064d696c616e6f,Milano,31.7390878,-106.4862293,"commercial, commercial.clothing, commercial.clothing.clothes",Milano,"Avenida 16 de Septiembre, 32001 Ciudad Juárez, CHH, Mexico",Ciudad Juárez,Chihuahua,32001,Mexico,"Milano, Avenida 16 de Septiembre, 32001 Ciudad Juárez, CHH, Mexico",,,2532.0
51c343183f0d9f5ac059834c00ba2fbd3f40f00103f901d0fd2f7f0100000092030a4d6973732042656c6c61,Miss Bella,31.7390095,-106.4851835,"commercial, commercial.health_and_beauty, commercial.health_and_beauty.cosmetics",Miss Bella,"Avenida 16 de Septiembre, 32001 Ciudad Juárez, CHH, Mexico",Ciudad Juárez,Chihuahua,32001,Mexico,"Miss Bella, Avenida 16 de Septiembre, 32001 Ciudad Juárez, CHH, Mexico",,,2538.0
51fa252c3b0e9f5ac0596b24d7092fbd3f40f00103f901d5fd2f7f0100000092030b5a6f652046617368696f6e,Zoe Fashion,31.738999,-106.4852436,"commercial, commercial.clothing, commercial.clothing.clothes",Zoe Fashion,"Avenida 16 de Septiembre, 32001 Ciudad Juárez, CHH, Mexico",Ciudad Juárez,Chihuahua,32001,Mexico,"Zoe Fashion, Avenida 16 de Septiembre, 32001 Ciudad Juárez, CHH, Mexico",,,2539.0
51083df60e129f5ac059a7562da52ebd3f40f00103f901d9fd2f7f0100000092031146756e64616369c3b36e20446f6e64c3a9,Fundación Dondé,31.738993,-106.4854772,"commercial, service, service.financial, service.financial.money_lender",Fundación Dondé,"Avenida 16 de Septiembre, 32001 Ciudad Juárez, CHH, Mexico",Ciudad Juárez,Chihuahua,32001,Mexico,"Fundación Dondé, Avenida 16 de Septiembre, 32001 Ciudad Juárez, CHH, Mexico",,,2540.0
51313f3734e59f5ac0595c45b82af5bd3f40f00103f901c98af7be00000000,,31.7420222,-106.4983645,"commercial, service, service.funeral_directors",Avenida 16 de Septiembre Poniente,"Durango, 32160 Ciudad Juárez, CHH, Mexico",Ciudad Juárez,Chihuahua,32160,Mexico,"Avenida 16 de Septiembre Poniente, Durango, 32160 Ciudad Juárez, CHH, Mexico",,,2542.0
51ab6faaffbd9e5ac059c8fabd643ebd3f40f00103f901030705c6010000009203074dc3a97869636f,México,31.7392333,-106.4803466,"commercial, commercial.health_and_beauty, commercial.health_and_beauty.optician",México,"Calle Ramón Corona, 32001 Ciudad Juárez, CHH, Mexico",Ciudad Juárez,Chihuahua,32001,Mexico,"México, Calle Ramón Corona, 32001 Ciudad Juárez, CHH, Mexico",,,2552.0
5177b293eac29e5ac0591697892837bd3f40f00102f901c73c2830000000009203044f78786f,Oxxo,31.739122899999998,-106.4806467478137,"building, building.commercial, commercial, commercial.convenience",Oxxo,"Calle Ramón Corona, 32001 Ciudad Juárez, CHH, Mexico",Ciudad Juárez,Chihuahua,32001,Mexico,"Oxxo, Calle Ramón Corona, 32001 Ciudad Juárez, CHH, Mexico",https://www.oxxo.com/tiendas?cr=50PP4,,2554.0
5145806156b79e5ac059f65d019c39bd3f40f00102f901491a9d30000000009203094d6f6e746572726579,Monterrey,31.7391603,-106.47994002839648,"building, building.commercial, commercial, commercial.food_and_drink, commercial.food_and_drink.drinks",Monterrey,"Avenida 16 de Septiembre, 32001 Ciudad Juárez, CHH, Mexico",Ciudad Juárez,Chihuahua,32001,Mexico,"Monterrey, Avenida 16 de Septiembre, 32001 Ciudad Juárez, CHH, Mexico",,,2554.0
516535e4f5dc9e5ac0591ee52e7e1abd3f40f00102f9017a1151250000000092030a4d6f64612074656c6173,Moda telas,31.7386855,-106.48223635946269,"building, building.commercial, commercial, commercial.hobby, commercial.hobby.sewing_and_knitting",Moda telas,"Ignacio de la Pena, 32001 Ciudad Juárez, CHH, Mexico",Ciudad Juárez,Chihuahua,32001,Mexico,"Moda telas, Ignacio de la Pena, 32001 Ciudad Juárez, CHH, Mexico",,,2562.0
51a9fc0941069f5ac05967e95bec07bd3f40f00102f9010d115125000000009203074a75c3a172657a,Juárez,31.73840215,-106.48475671744623,"building, building.commercial, commercial, commercial.shopping_mall",Calle Vicente Guerrero,"32001 Ciudad Juárez, CHH, Mexico",Ciudad Juárez,Chihuahua,32001,Mexico,"Calle Vicente Guerrero, 32001 Ciudad Juárez, CHH, Mexico",,,2562.0
515f306e59f49e5ac059e523e60423bd3f40f00103f90161fb2f7f010000009203044f78786f,Oxxo,31.7388156,-106.4836639,"commercial, commercial.convenience",Oxxo,"Avenida 16 de Septiembre, 32001 Ciudad Juárez, CHH, Mexico",Ciudad Juárez,Chihuahua,32001,Mexico,"Oxxo, Avenida 16 de Septiembre, 32001 Ciudad Juárez, CHH, Mexico",https://www.oxxo.com/tiendas?cr=50DGX,,2563.0
51120c8c61f39e5ac05912f0396c22bd3f40f00103f90160fb2f7f0100000092030d43656e74726f204a6f7965726f,Centro Joyero,31.7388065,-106.4836048,"commercial, commercial.jewelry",Centro Joyero,"Avenida 16 de Septiembre, 32001 Ciudad Juárez, CHH, Mexico",Ciudad Juárez,Chihuahua,32001,Mexico,"Centro Joyero, Avenida 16 de Septiembre, 32001 Ciudad Juárez, CHH, Mexico",,,2564.0
51fcdc3d02cd9e5ac0598e0a6ab41cbd3f40f00102f901d71051250000000092031c43656e74726f20436f6d65726369616c20436f6e74696e656e74616c,Centro Comercial Continental,31.73871925,-106.48126274148302,"building, building.commercial, commercial, commercial.shopping_mall",Centro Comercial Continental,"Ignacio de la Pena, 32001 Ciudad Juárez, CHH, Mexico",Ciudad Juárez,Chihuahua,32001,Mexico,"Centro Comercial Continental, Ignacio de la Pena, 32001 Ciudad Juárez, CHH, Mexico",,,2571.0
51c1e03f82079f5ac05970b6c0da18bd3f40f00103f90166fb2f7f0100000092031150657266756d6573204575726f70656f73,Perfumes Europeos,31.7386605,-106.4848333,"commercial, commercial.health_and_beauty, commercial.health_and_beauty.cosmetics",Perfumes Europeos,"Avenida 16 de Septiembre, 32001 Ciudad Juárez, CHH, Mexico",Ciudad Juárez,Chihuahua,32001,Mexico,"Perfumes Europeos, Avenida 16 de Septiembre, 32001 Ciudad Juárez, CHH, Mexico",,,2577.0
51e42f2dea139f5ac059bb1e420713bd3f40f00103f901ccfd2f7f0100000092030e576f726c642043656c6c756c6172,World Cellular,31.7385716,-106.4855905,"commercial, commercial.elektronics",World Cellular,"Calle Noche Triste, 32001 Ciudad Juárez, CHH, Mexico",Ciudad Juárez,Chihuahua,32001,Mexico,"World Cellular, Calle Noche Triste, 32001 Ciudad Juárez, CHH, Mexico",,,2587.0
51323e82d11b9f5ac059d6cedca40ebd3f40f00103f9012dc8815b02000000,,31.7385047,-106.4860729,"commercial, commercial.kiosk",Calle Vicente Guerrero,"32001 Ciudad Juárez, CHH, Mexico",Ciudad Juárez,Chihuahua,32001,Mexico,"Calle Vicente Guerrero, 32001 Ciudad Juárez, CHH, Mexico",,,2596.0
51939bf232d49e5ac0599dcacbb117bd3f40f00103f90124c8815b020000009203054c6572646f,Lerdo,31.7386428,-106.4817016,"commercial, service, service.beauty, service.beauty.hairdresser",Avenida Lerdo,"32001 Ciudad Juárez, CHH, Mexico",Ciudad Juárez,Chihuahua,32001,Mexico,"Avenida Lerdo, 32001 Ciudad Juárez, CHH, Mexico",,,2598.0
51c60e74feb79e5ac059b8b8a5db23bd3f40f00103f901fa0605c60100000092030a4f707469636c696e6963,Opticlinic,31.7388284,-106.4799801,"commercial, commercial.health_and_beauty, commercial.health_and_beauty.optician",Opticlinic,"Avenida 16 de Septiembre, 32001 Ciudad Juárez, CHH, Mexico",Ciudad Juárez,Chihuahua,32001,Mexico,"Opticlinic, Avenida 16 de Septiembre, 32001 Ciudad Juárez, CHH, Mexico",,,2602.0
516cb713db139f5ac0592b89f32c08bd3f40f00103f901cdfd2f7f01000000920309456c2043656e74726f,El Centro,31.738406,-106.4855869,"commercial, commercial.pet, pet, pet.shop",El Centro,"Calle Noche Triste, 32001 Ciudad Juárez, CHH, Mexico",Ciudad Juárez,Chihuahua,32001,Mexico,"El Centro, Calle Noche Triste, 32001 Ciudad Juárez, CHH, Mexico",,,2606.0
51aeeeb325069f5ac05940480cad04bd3f40f00103f90168fb2f7f010000009203084d6f766973746172,Movistar,31.7383526,-106.4847502,"commercial, commercial.elektronics",Movistar,"Avenida Benito Juárez, 32001 Ciudad Juárez, CHH, Mexico",Ciudad Juárez,Chihuahua,32001,Mexico,"Movistar, Avenida Benito Juárez, 32001 Ciudad Juárez, CHH, Mexico",,,2611.0
51329a4b60a99e5ac059decfbeae26bd3f40f00103f901393c4f60010000009203064465766c696e,Devlin,31.7388715,-106.4790879,"commercial, commercial.health_and_beauty, commercial.health_and_beauty.optician",Devlin,"Calle Quintana Roo, 32001 Ciudad Juárez, CHH, Mexico",Ciudad Juárez,Chihuahua,32001,Mexico,"Devlin, Calle Quintana Roo, 32001 Ciudad Juárez, CHH, Mexico",,,2614.0
51cb7454da079f5ac05912e44c7402bd3f40f00103f901c8fd2f7f0100000092030653746572656e,Steren,31.7383187,-106.4848543,"commercial, commercial.elektronics",Steren,"Calle Vicente Guerrero, 32001 Ciudad Juárez, CHH, Mexico",Ciudad Juárez,Chihuahua,32001,Mexico,"Steren, Calle Vicente Guerrero, 32001 Ciudad Juárez, CHH, Mexico",,,2615.0
511bb7f3580e9f5ac05916604e7b00bd3f40f00103f901c7fd2f7f010000009203134d6f646120566171756572612054656a612773,Moda Vaquera Teja's,31.7382886,-106.4852507,"commercial, commercial.clothing, commercial.clothing.clothes",Moda Vaquera Teja's,"Calle Vicente Guerrero, 32001 Ciudad Juárez, CHH, Mexico",Ciudad Juárez,Chihuahua,32001,Mexico,"Moda Vaquera Teja's, Calle Vicente Guerrero, 32001 Ciudad Juárez, CHH, Mexico",,,2618.0
5108e1e9501d9f5ac059a7b1dbc8e1bc3f40f00102f90123115125000000009203194d65726361646f204d756e69636970616c205265666f726d61,Mercado Municipal Reforma,31.7378202,-106.48616431083441,"building, building.commercial, commercial, commercial.supermarket",Mercado Municipal Reforma,"Calle Noche Triste, 32001 Ciudad Juárez, CHH, Mexico",Ciudad Juárez,Chihuahua,32001,Mexico,"Mercado Municipal Reforma, Calle Noche Triste, 32001 Ciudad Juárez, CHH, Mexico",,,2619.0
51f206ff49119f5ac0596c433ea4dfbc3f40f00102f901261151250000000092030d506c617a612056656c61726465,Plaza Velarde,31.7377875,-106.48543023972505,"building, building.commercial, commercial, commercial.shopping_mall",Plaza Velarde,"Calle Vicente Guerrero, 32001 Ciudad Juárez, CHH, Mexico",Ciudad Juárez,Chihuahua,32001,Mexico,"Plaza Velarde, Calle Vicente Guerrero, 32001 Ciudad Juárez, CHH, Mexico",,,2625.0
5180b950fd359f5ac059de316bd4f9bc3f40f00102f901241151250000000092031c4d65726361646f204d756e69636970616c20437561687574656d6f63,Mercado Municipal Cuahutemoc,31.738187099999998,-106.48767025836241,"building, building.commercial, commercial, commercial.supermarket",Mercado Municipal Cuahutemoc,"Calle Vicente Guerrero, 32001 Ciudad Juárez, CHH, Mexico",Ciudad Juárez,Chihuahua,32001,Mexico,"Mercado Municipal Cuahutemoc, Calle Vicente Guerrero, 32001 Ciudad Juárez, CHH, Mexico",,,2625.0
514332891f089f5ac059608c881ef8bc3f40f00103f90169fb2f7f010000009203044d617869,Maxi,31.738161,-106.4848708,"commercial, commercial.clothing, commercial.clothing.shoes",Maxi,"Calle Vicente Guerrero, 32001 Ciudad Juárez, CHH, Mexico",Ciudad Juárez,Chihuahua,32001,Mexico,"Maxi, Calle Vicente Guerrero, 32001 Ciudad Juárez, CHH, Mexico",,,2632.0
51743d97f3d59e5ac059a6bb53acd0bc3f40f00102f901d21051250000000092030d506173616a6520436f7272656f,Pasaje Correo,31.7375591,-106.48180856484925,"building, building.commercial, commercial, commercial.shopping_mall",Pasaje Correo,"Calle Manuel Bernal Alarcón, 32001 Ciudad Juárez, CHH, Mexico",Ciudad Juárez,Chihuahua,32001,Mexico,"Pasaje Correo, Calle Manuel Bernal Alarcón, 32001 Ciudad Juárez, CHH, Mexico",,,2633.0
51c3370312039f5ac059cddddd75ecbc3f40f00103f90163fb2f7f01000000,,31.7379831,-106.4845624,"commercial, commercial.newsagent",Avenida Benito Juárez,"32001 Ciudad Juárez, CHH, Mexico",Ciudad Juárez,Chihuahua,32001,Mexico,"Avenida Benito Juárez, 32001 Ciudad Juárez, CHH, Mexico",,,2652.0
51bd8a8c0e48a05ac05943a1423179c73f40f00103f901b2f3d0b70200000092031857656972646f756768732042616b65727920262043616665,Weirdoughs Bakery & Cafe,31.779193,-106.504398,"commercial, commercial.food_and_drink, commercial.food_and_drink.bakery",Weirdoughs Bakery & Cafe,"2900 North Mesa Street, El Paso, TX 79902, United States of America",El Paso,Texas,79902,United States,"Weirdoughs Bakery & Cafe, 2900 North Mesa Street, El Paso, TX 79902, United States of America",,,2656.0
515791d10149a05ac059b291ea527ec73f40f00103f901de610136010000009203115570746f776e204368656170736b617465,Uptown Cheapskate,31.7792713,-106.504456,"commercial, commercial.clothing, commercial.clothing.clothes",Uptown Cheapskate,"2900 North Mesa Street, El Paso, TX 79902, United States of America",El Paso,Texas,79902,United States,"Uptown Cheapskate, 2900 North Mesa Street, El Paso, TX 79902, United States of America",,,2666.0
519791d508d89e5ac05911b101cde7bc3f40f00103f901cd374f6001000000920309526f636b2037302773,Rock 70's,31.737912,-106.4819357,"commercial, commercial.video_and_music",Rock 70's,"Pasaje Correo, 32001 Ciudad Juárez, CHH, Mexico",Ciudad Juárez,Chihuahua,32001,Mexico,"Rock 70's, Pasaje Correo, 32001 Ciudad Juárez, CHH, Mexico",,,2676.0
515e126745d49e5ac059aeaf49cee4bc3f40f00103f901cc374f600100000092031c4c6962726572c3ad6120416e7469637561726961204a75c3a172657a,Librería Anticuaria Juárez,31.7378663,-106.481706,"commercial, commercial.books",Librería Anticuaria Juárez,"Avenida Lerdo 239, 32000 Ciudad Juárez, CHH, Mexico",Ciudad Juárez,Chihuahua,32000,Mexico,"Librería Anticuaria Juárez, Avenida Lerdo 239, 32000 Ciudad Juárez, CHH, Mexico",https://libreria-anticuaria-juarez.negocio.site/,,2683.0
51ecf82f10849e5ac059e36a21731bbd3f40f00103f9015a48a88e0200000092031e50616e61646572c3ad6120547261646963696f6e616c2052455a49535445,Panadería Tradicional REZISTE,31.7387001,-106.4768105,"commercial, commercial.food_and_drink, commercial.food_and_drink.bakery",Panadería Tradicional REZISTE,"Calle del Comercio, 32001 Ciudad Juárez, CHH, Mexico",Ciudad Juárez,Chihuahua,32001,Mexico,"Panadería Tradicional REZISTE, Calle del Comercio, 32001 Ciudad Juárez, CHH, Mexico",,,2687.0
51f7870b4d41a05ac0590406861ee7c73f40f00102f90173d293090000000092030a416c62657274736f6e73,Albertsons,31.78087035,-106.50398565412603,"building, building.commercial, commercial, commercial.supermarket",Albertsons,"3100 North Stanton Street, El Paso, TX 79902, United States of America",El Paso,Texas,79902,United States,"Albertsons, 3100 North Stanton Street, El Paso, TX 79902, United States of America",https://local.albertsons.com/tx/el-paso/3100-mesa-st.html,,2723.0
5155606d31e4a05ac05991913a6299c33f40f00103f9016069c14401000000,,31.7640592,-106.5139278,"commercial, commercial.convenience",Calle Huatusco,"Felipe Ángeles, 32100 Ciudad Juárez, CHH, Mexico",Ciudad Juárez,Chihuahua,32100,Mexico,"Calle Huatusco, Felipe Ángeles, 32100 Ciudad Juárez, CHH, Mexico",,,2751.0
51aa6a93d453a05ac059a774dd066bbe3f40f00103f901a57bb430010000009203084175746f5a6f6e65,AutoZone,31.7438206,-106.5051166,"commercial, commercial.vehicle",AutoZone,"Avenida 16 de Septiembre Poniente, Postal, 32160 Ciudad Juárez, CHH, Mexico",Ciudad Juárez,Chihuahua,32160,Mexico,"AutoZone, Avenida 16 de Septiembre Poniente, Postal, 32160 Ciudad Juárez, CHH, Mexico",,,2766.0
5151e54156d79e5ac0598abad8159fbc3f40f00102f901ad3c2830000000009203044f78786f,Oxxo,31.73680245,-106.48189312396177,"building, building.commercial, commercial, commercial.convenience",Oxxo,"Avenida Francisco Villa, 32001 Ciudad Juárez, CHH, Mexico",Ciudad Juárez,Chihuahua,32001,Mexico,"Oxxo, Avenida Francisco Villa, 32001 Ciudad Juárez, CHH, Mexico",https://www.oxxo.com/tiendas?cr=50VIK,,2788.0
51ed05b012bd9e5ac0593d05e407aebc3f40f00103f901218c54ef00000000,,31.7370305,-106.4802901,"commercial, commercial.convenience",Calle Galeana,"32001 Ciudad Juárez, CHH, Mexico",Ciudad Juárez,Chihuahua,32001,Mexico,"Calle Galeana, 32001 Ciudad Juárez, CHH, Mexico",,,2793.0
51606f9d61d69e5ac059df44e5768abc3f40f00102f901ac3c283000000000,,31.7364878,-106.48183479666251,"building, building.commercial, commercial",Calle Vicente Guerrero,"32001 Ciudad Juárez, CHH, Mexico",Ciudad Juárez,Chihuahua,32001,Mexico,"Calle Vicente Guerrero, 32001 Ciudad Juárez, CHH, Mexico",,,2812.0
518f6d7429099f5ac05979e7083087bc3f40f00103f9013922e1850100000092031856656e64656e206d617175696e61732064652070656c6172,Venden maquinas de pelar,31.7364378,-106.4849342,"commercial, commercial.houseware_and_hardware, commercial.houseware_and_hardware.hardware_and_tools",Venden maquinas de pelar,"Calle La Paz, 32001 Ciudad Juárez, CHH, Mexico",Ciudad Juárez,Chihuahua,32001,Mexico,"Venden maquinas de pelar, Calle La Paz, 32001 Ciudad Juárez, CHH, Mexico",,,2823.0
51abfe08c380a05ac059a0a233dbcbbe3f40f00103f901c8ebb73d02000000920312454d5045c3914f53204c61204d656a6f7221,EMPEÑOS La Mejor!,31.7452981,-106.507859,commercial,EMPEÑOS La Mejor!,"Calle Helio, Postal, 32160 Ciudad Juárez, CHH, Mexico",Ciudad Juárez,Chihuahua,32160,Mexico,"EMPEÑOS La Mejor!, Calle Helio, Postal, 32160 Ciudad Juárez, CHH, Mexico",,,2842.0
51fee6658a79a05ac05902860cfb98be3f40f00102f9019cd5d32700000000920306686167616c6f,hagalo,31.7445218,-106.50741825057412,"building, building.commercial, commercial",hagalo,"Calle Telurio, Postal, 32160 Ciudad Juárez, CHH, Mexico",Ciudad Juárez,Chihuahua,32160,Mexico,"hagalo, Calle Telurio, Postal, 32160 Ciudad Juárez, CHH, Mexico",,,2843.0
51b1b49d00d49e5ac05943f3740f75bc3f40f00103f901f404e8ec000000009203184e6163696f6e616c204d6f6e746520646520506965646164,Nacional Monte de Piedad,31.7361612,-106.4816896,"commercial, commercial.jewelry",Nacional Monte de Piedad,"Calle Vicente Guerrero, 32001 Ciudad Juárez, CHH, Mexico",Ciudad Juárez,Chihuahua,32001,Mexico,"Nacional Monte de Piedad, Calle Vicente Guerrero, 32001 Ciudad Juárez, CHH, Mexico",,,2871.0
51ea973e2ab49f5ac05989fecc26d1bc3f40f00103f9012edf4a24020000009203135469656e64612064652061626172726f746573,Tienda de abarrotes,31.7375664,-106.4953714,"commercial, commercial.convenience",Tienda de abarrotes,"Calle Manuel Acuña, Durango, 32160 Ciudad Juárez, CHH, Mexico",Ciudad Juárez,Chihuahua,32160,Mexico,"Tienda de abarrotes, Calle Manuel Acuña, Durango, 32160 Ciudad Juárez, CHH, Mexico",,,2872.0
51a29fa9d7ad9d5ac059deaaf54bd5c73f40f00103f901e85645040100000092030f53757072656d65204c61756e647279,Supreme Laundry,31.7805984,-106.4637355,"commercial, service, service.cleaning, service.cleaning.laundry",Supreme Laundry,"East Yandell Drive, El Paso, TX 79903, United States of America",El Paso,Texas,79903,United States,"Supreme Laundry, East Yandell Drive, El Paso, TX 79903, United States of America",,,2891.0
5138cd1ace8ca05ac059e8f356198dbe3f40f00102f901d370521f00000000920305536d617274,Smart,31.7443405,-106.50859406106326,"building, building.commercial, commercial, commercial.supermarket",Smart,"Calle Mariano Matamoros, Postal, 32160 Ciudad Juárez, CHH, Mexico",Ciudad Juárez,Chihuahua,32160,Mexico,"Smart, Calle Mariano Matamoros, Postal, 32160 Ciudad Juárez, CHH, Mexico",,,2932.0
518ba9f4134e9f5ac05909ba207255bc3f40f00103f901a51a454a01000000,,31.7356788,-106.4891405,"commercial, commercial.convenience",Calle Manuel Acuña,"Durango, 32001 Ciudad Juárez, CHH, Mexico",Ciudad Juárez,Chihuahua,32001,Mexico,"Calle Manuel Acuña, Durango, 32001 Ciudad Juárez, CHH, Mexico",,,2934.0
519aec9fa7819d5ac059dff235876bc73f40f00102f901d59fcd2b0000000092030e446f6c6c61722047656e6572616c,Dollar General,31.7789845,-106.4610385,"building, building.commercial, commercial, commercial.discount_store",Dollar General,"500 North Piedras Street, El Paso, TX 79903, United States of America",El Paso,Texas,79903,United States,"Dollar General, 500 North Piedras Street, El Paso, TX 79903, United States of America",https://www.dollargeneral.com/store-directory/tx/el-paso/19328,,2935.0
514ea26f1c429e5ac0590326b6d2c6bc3f40f00103f9018b4644bc0000000092030d426c6173732050657263686573,Blass Perches,31.7374088,-106.4727851,"commercial, service, service.funeral_directors",Blass Perches,"Ignacio de la Pena, 32040 Ciudad Juárez, CHH, Mexico",Ciudad Juárez,Chihuahua,32040,Mexico,"Blass Perches, Ignacio de la Pena, 32040 Ciudad Juárez, CHH, Mexico",,,2952.0
51dba09ba2c89f5ac059c1cf9272adbc3f40f00103f90130df4a240200000092030b6372697374616c65726961,cristaleria,31.7370216,-106.4966208,"commercial, commercial.houseware_and_hardware, commercial.houseware_and_hardware.building_materials, commercial.houseware_and_hardware.building_materials.glaziery",cristaleria,"Calle Cobre, Durango, 32160 Ciudad Juárez, CHH, Mexico",Ciudad Juárez,Chihuahua,32160,Mexico,"cristaleria, Calle Cobre, Durango, 32160 Ciudad Juárez, CHH, Mexico",,,2970.0
5135a1ffd4ae9e5ac059ec8c8bba31bc3f40f00103f90153bee2650100000092030e42617a61722064656c204d6f6e75,Bazar del Monu,31.7351338,-106.4794209,"commercial, commercial.discount_store",Bazar del Monu,"Calle 20 De Noviembre, 32001 Ciudad Juárez, CHH, Mexico",Ciudad Juárez,Chihuahua,32001,Mexico,"Bazar del Monu, Calle 20 De Noviembre, 32001 Ciudad Juárez, CHH, Mexico",,,3015.0
515b3233d8799d5ac059ff051bee7ebe3f40f00103f9012615f1b90000000092030950617374692047656c,Pasti Gel,31.7441243,-106.4605618,"commercial, commercial.food_and_drink, commercial.food_and_drink.bakery",Pasti Gel,"Avenida Hermanos Escobar, 32300 Ciudad Juárez, CHH, Mexico",Ciudad Juárez,Chihuahua,32300,Mexico,"Pasti Gel, Avenida Hermanos Escobar, 32300 Ciudad Juárez, CHH, Mexico",,,3041.0
51a8a7c26559a05ac05985c8a211d8c83f40f00102f9013fb43f210000000092030f42696379636c6520436f6d70616e79,Bicycle Company,31.78454695,-106.50545639046925,"building, building.commercial, commercial, commercial.outdoor_and_sport, commercial.outdoor_and_sport.bicycle",Bicycle Company,"3434 North Mesa Street, El Paso, TX 79902, United States of America",El Paso,Texas,79902,United States,"Bicycle Company, 3434 North Mesa Street, El Paso, TX 79902, United States of America",,,3155.0
51e1096bf8da9e5ac0590f3f2a15afbb3f40f00102f901cd1051250000000092030f532d4d617274204368617665c3b161,S-Mart Chaveña,31.733140300000002,-106.48211489155759,"building, building.commercial, commercial, commercial.supermarket",S-Mart Chaveña,"Paso del Norte, 32380 Ciudad Juárez, CHH, Mexico",Ciudad Juárez,Chihuahua,32380,Mexico,"S-Mart Chaveña, Paso del Norte, 32380 Ciudad Juárez, CHH, Mexico",,,3174.0
510653872f939d5ac059d81f3147a0c83f40f00102f90126cff3440000000092030957616c677265656e73,Walgreens,31.78369565,-106.46210849967255,"building, building.commercial, commercial, commercial.chemist",Walgreens,"Pershing Drive, El Paso, TX 79903, United States of America",El Paso,Texas,79903,United States,"Walgreens, Pershing Drive, El Paso, TX 79903, United States of America",https://www.walgreens.com/locator/walgreens-2879+montana+ave-el+paso-tx-79903/id=4679,,3226.0
5194c7bacd039d5ac059605c859a32c03f40f00102f9015bdd5e3e00000000920309537570657265747465,Superette,31.75077215,-106.45335715522953,"building, building.commercial, commercial, commercial.supermarket",Superette,"Calle Río Nilo, 32317 Ciudad Juárez, CHH, Mexico",Ciudad Juárez,Chihuahua,32317,Mexico,"Superette, Calle Río Nilo, 32317 Ciudad Juárez, CHH, Mexico",,,3228.0
5190a2cedc439d5ac059509c5ed4a4be3f40f00103f901041ae8c800000000,,31.7447026,-106.457267,"commercial, commercial.convenience",Avenida Hermanos Escobar,"32300 Ciudad Juárez, CHH, Mexico",Ciudad Juárez,Chihuahua,32300,Mexico,"Avenida Hermanos Escobar, 32300 Ciudad Juárez, CHH, Mexico",,,3247.0
51d68ee21c759e5ac059167a5ba5bbbb3f40f00103f90142c8454a01000000,,31.733332,-106.475898,"commercial, commercial.convenience",Calle Justo Sierra,"32001 Ciudad Juárez, CHH, Mexico",Ciudad Juárez,Chihuahua,32001,Mexico,"Calle Justo Sierra, 32001 Ciudad Juárez, CHH, Mexico",,,3283.0
519c1e6f4d159d5ac059e3a01c1c47bf3f40f00103f9017df2877a0100000092030c706570696e20676172616765,pepin garage,31.7471788,-106.4544252,"commercial, service, service.travel_agency",pepin garage,"Calle Pedro S. Varela, 32317 Ciudad Juárez, CHH, Mexico",Ciudad Juárez,Chihuahua,32317,Mexico,"pepin garage, Calle Pedro S. Varela, 32317 Ciudad Juárez, CHH, Mexico",,,3325.0
51185c73477f9d5ac05906052b0abbc83f40f00102f901c59fcd2b000000009203134f275265696c6c79204175746f205061727473,O'Reilly Auto Parts,31.784104,-106.4608935,"building, building.commercial, commercial, commercial.vehicle",O'Reilly Auto Parts,"Montana Avenue, El Paso, TX 79903, United States of America",El Paso,Texas,79903,United States,"O'Reilly Auto Parts, Montana Avenue, El Paso, TX 79903, United States of America",https://locations.oreillyauto.com/tx/elpaso/autoparts-2867.html,,3338.0
51fcb0ec25189f5ac0592c4eb3464ebb3f40f00102f901a7d2d327000000009203044f78786f,Oxxo,31.731663150000003,-106.48584888567345,"building, building.commercial, commercial, commercial.convenience",Oxxo,"Calle Jesús Nájera, 32380 Ciudad Juárez, CHH, Mexico",Ciudad Juárez,Chihuahua,32380,Mexico,"Oxxo, Calle Jesús Nájera, 32380 Ciudad Juárez, CHH, Mexico",https://www.oxxo.com/tiendas?cr=50BIA,,3340.0
51dc3536b1c6a05ac059bdfdbfa6cebd3f40f00102f9017fd6d3270000000092030b6c6120676f6e7a616c657a,la gonzalez,31.741434499999997,-106.51212721151336,"building, building.commercial, commercial",la gonzalez,"Calle Himno Nacional, Durango, 32160 Ciudad Juárez, CHH, Mexico",Ciudad Juárez,Chihuahua,32160,Mexico,"la gonzalez, Calle Himno Nacional, Durango, 32160 Ciudad Juárez, CHH, Mexico",,,3404.0
519c41e845129e5ac059058b6b82b9bb3f40f00103f901e9ab009801000000920314436170696c6c617320526e6163696d69656e746f,Capillas Rnacimiento,31.7332994,-106.4698653,"commercial, service, service.funeral_directors",Capillas Rnacimiento,"Calle Colombia, 32040 Ciudad Juárez, CHH, Mexico",Ciudad Juárez,Chihuahua,32040,Mexico,"Capillas Rnacimiento, Calle Colombia, 32040 Ciudad Juárez, CHH, Mexico",,,3480.0
51906d7429099e5ac05982d429f0babb3f40f00103f90140c8454a01000000,,31.7333212,-106.4693092,"commercial, commercial.convenience",Avenida de los Insurgentes,"32040 Ciudad Juárez, CHH, Mexico",Ciudad Juárez,Chihuahua,32040,Mexico,"Avenida de los Insurgentes, 32040 Ciudad Juárez, CHH, Mexico",,,3500.0
51e2fe23d3219d5ac059e4827297c4bd3f40f00103f9015a5550600100000092031c4c6962726572c3ad6120556e6976657273697461726961205541434a,Librería Universitaria UACJ,31.741281,-106.4551895,"commercial, commercial.books",Librería Universitaria UACJ,"Avenida Benjamín Franklin, 32300 Ciudad Juárez, CHH, Mexico",Ciudad Juárez,Chihuahua,32300,Mexico,"Librería Universitaria UACJ, Avenida Benjamín Franklin, 32300 Ciudad Juárez, CHH, Mexico",,,3634.0
51f68fcf75ab9c5ac059b69846f4d7c03f40f00103f9014f2581e7000000009203074427526f73656c,D'Rosel,31.7532952,-106.4479651,"commercial, commercial.clothing, commercial.clothing.clothes",D'Rosel,"Calle Río de la Plata, 32317 Ciudad Juárez, CHH, Mexico",Ciudad Juárez,Chihuahua,32317,Mexico,"D'Rosel, Calle Río de la Plata, 32317 Ciudad Juárez, CHH, Mexico",,,3636.0
51681fd81b839d5ac0596e98374371bc3f40f00102f9014c46d32600000000,,31.73610325,-106.46112724405035,"building, building.commercial, commercial, commercial.kiosk",Calle Ignacio Ramírez,"32300 Ciudad Juárez, CHH, Mexico",Ciudad Juárez,Chihuahua,32300,Mexico,"Calle Ignacio Ramírez, 32300 Ciudad Juárez, CHH, Mexico",,,3642.0
5162aefb7db59c5ac05978d3192f38c03f40f00103f901d73454e100000000,,31.7508573,-106.4485774,"commercial, commercial.convenience",Avenida Licenciado Adolfo López Mateos,"32317 Ciudad Juárez, CHH, Mexico",Ciudad Juárez,Chihuahua,32317,Mexico,"Avenida Licenciado Adolfo López Mateos, 32317 Ciudad Juárez, CHH, Mexico",,,3662.0
515354fd4ae79f5ac059294e098edcba3f40f00103f901426e7fc6020000009203044f78786f,Oxxo,31.7299279,-106.498492,"commercial, commercial.convenience",Oxxo,"Calle Del 57, Anexas, 32230 Ciudad Juárez, CHH, Mexico",Ciudad Juárez,Chihuahua,32230,Mexico,"Oxxo, Calle Del 57, Anexas, 32230 Ciudad Juárez, CHH, Mexico",,,3769.0
516fba658778a15ac059a2d212e7a8c53f40f00103f9014dd9ffb900000000,,31.7721085,-106.5229815,"commercial, commercial.convenience",Boulevard Ingeniero Bernardo Norzagaray,"Felipe Ángeles, 32100 Ciudad Juárez, CHH, Mexico",Ciudad Juárez,Chihuahua,32100,Mexico,"Boulevard Ingeniero Bernardo Norzagaray, Felipe Ángeles, 32100 Ciudad Juárez, CHH, Mexico",,,3772.0
510ff340bfca9d5ac0595a043e0cbeca3f40f00103f90190ab80f60100000092030d46616d696c7920446f6c6c6172,Family Dollar,31.7919624,-106.4654997,"commercial, commercial.discount_store",Family Dollar,"Wheeling Avenue, El Paso, TX 79903, United States of America",El Paso,Texas,79903,United States,"Family Dollar, Wheeling Avenue, El Paso, TX 79903, United States of America",,,3811.0
51a53dc364e59c5ac059c9dbd3dbb0bd3f40f00102f90119fd0f0f00000000920316506c617a61206465206c617320416dc3a97269636173,Plaza de las Américas,31.7409799,-106.45150107447134,"building, building.commercial, commercial, commercial.shopping_mall",Plaza de las Américas,"Avenida Benjamín Franklin, 32317 Ciudad Juárez, CHH, Mexico",Ciudad Juárez,Chihuahua,32317,Mexico,"Plaza de las Américas, Avenida Benjamín Franklin, 32317 Ciudad Juárez, CHH, Mexico",,,3811.0
51dc05ef50b99c5ac059ff82094e33bf3f40f00103f901f6dea37b020000009203044f78786f,Oxxo,31.7468766,-106.4488108,"commercial, commercial.convenience, wheelchair, wheelchair.limited",Oxxo,"Avenida Licenciado Adolfo López Mateos, 32317 Ciudad Juárez, CHH, Mexico",Ciudad Juárez,Chihuahua,32317,Mexico,"Oxxo, Avenida Licenciado Adolfo López Mateos, 32317 Ciudad Juárez, CHH, Mexico",https://www.oxxo.com/tiendas?cr=505SW,,3812.0
515aae683ee79c5ac05962a20ee7e1bd3f40f00102f90118fd0f0f00000000920306532d6d617274,S-mart,31.74172825,-106.4516140005375,"commercial, commercial.supermarket",S-mart,"Avenida Benjamín Franklin, 32317 Ciudad Juárez, CHH, Mexico",Ciudad Juárez,Chihuahua,32317,Mexico,"S-mart, Avenida Benjamín Franklin, 32317 Ciudad Juárez, CHH, Mexico",,,3822.0
5152cbacf0789c5ac059a6d59882ebc43f40f00102f901afa3bf0f00000000920309476966742053686f70,Gift Shop,31.7692186,-106.44488160013614,"building, building.commercial, commercial, commercial.gift_and_souvenir",Gift Shop,"South Findley Avenue, El Paso, TX 79905, United States of America",El Paso,Texas,79905,United States,"Gift Shop, South Findley Avenue, El Paso, TX 79905, United States of America",,,3876.0
51e4e655f5e69c5ac059fe4e7a5171c83f40f00102f9016221b81500000000,,31.7829791,-106.45159657849177,"building, building.commercial, commercial, commercial.supermarket",Tularosa Avenue,"El Paso, TX 79903, United States of America",El Paso,Texas,79903,United States,"Tularosa Avenue, El Paso, TX 79903, United States of America",,,3882.0
518e6445c3189f5ac05905c5782ef8b93f40f00103f9017a7806bb020000009203044f78786f,Oxxo,31.7264432,-106.4858864,"commercial, commercial.convenience",Oxxo,"Calle Del 57, Anexas, 32230 Ciudad Juárez, CHH, Mexico",Ciudad Juárez,Chihuahua,32230,Mexico,"Oxxo, Calle Del 57, Anexas, 32230 Ciudad Juárez, CHH, Mexico",https://www.oxxo.com/tiendas?cr=50SG5,,3932.0
51be7273e08ba15ac059a13aed40f8bf3f40f00103f9017f67c14401000000,,31.7498818,-106.5241624,"commercial, commercial.convenience",Avenida 16 de Septiembre Poniente,"Felipe Ángeles, 32100 Ciudad Juárez, CHH, Mexico",Ciudad Juárez,Chihuahua,32100,Mexico,"Avenida 16 de Septiembre Poniente, Felipe Ángeles, 32100 Ciudad Juárez, CHH, Mexico",,,3942.0
510a99f25fd99c5ac05930a6125ad6bc3f40f00102f9015d47e32b0000000092030853616e626f726e73,Sanborns,31.73764575,-106.45076750460808,"building, building.commercial, commercial, commercial.department_store",Sanborns,"Avenida Paseo Triunfo de la República, 32340 Ciudad Juárez, CHH, Mexico",Ciudad Juárez,Chihuahua,32340,Mexico,"Sanborns, Avenida Paseo Triunfo de la República, 32340 Ciudad Juárez, CHH, Mexico",,,4176.0
514c6a6803309d5ac059280ea381c4bb3f40f00103f9015c60d10401000000,,31.7334672,-106.4560555,"commercial, commercial.houseware_and_hardware, commercial.houseware_and_hardware.hardware_and_tools",Calle Fernando Montes de Oca,"32330 Ciudad Juárez, CHH, Mexico",Ciudad Juárez,Chihuahua,32330,Mexico,"Calle Fernando Montes de Oca, 32330 Ciudad Juárez, CHH, Mexico",,,4179.0
519aac510fd19e5ac059ec31530559b93f40f00103f901c7744a0102000000,,31.7240146,-106.48151,"commercial, commercial.convenience",Calle Manuel Ayala,"32380 Ciudad Juárez, CHH, Mexico",Ciudad Juárez,Chihuahua,32380,Mexico,"Calle Manuel Ayala, 32380 Ciudad Juárez, CHH, Mexico",,,4214.0
51b881f1c20c9e5ac05957a37961d7b93f40f00103f9017b818c7f01000000,,31.7259427,-106.4695289,"commercial, commercial.convenience",Calle Mérida,"32040 Ciudad Juárez, CHH, Mexico",Ciudad Juárez,Chihuahua,32040,Mexico,"Calle Mérida, 32040 Ciudad Juárez, CHH, Mexico",,,4248.0
514c7ed5dbb09e5ac059c9c090db40b93f40f00103f90142f84a010200000092030e4c6f732048657272616a65726f73,Los Herrajeros,31.7236459,-106.4795446,"commercial, commercial.discount_store",Los Herrajeros,"Calle Nieves Acosta, 32380 Ciudad Juárez, CHH, Mexico",Ciudad Juárez,Chihuahua,32380,Mexico,"Los Herrajeros, Calle Nieves Acosta, 32380 Ciudad Juárez, CHH, Mexico",,,4273.0
5153bd6527aca05ac059da909b537fcb3f40f00102f901277b300c0000000092030c4665644578204f6666696365,FedEx Office,31.7949116,-106.51050743995194,"building, building.commercial, commercial",FedEx Office,"Executive Center Boulevard, El Paso, TX 79902, United States of America",El Paso,Texas,79902,United States,"FedEx Office, Executive Center Boulevard, El Paso, TX 79902, United States of America",,,4372.0
5168ebda53279e5ac0596273316722b93f40f00102f901e2debd270000000092030f536f7269616e612053616e64657273,Soriana Sanders,31.7231812,-106.47115036372054,"building, building.commercial, commercial, commercial.supermarket",Soriana Sanders,"Eje Vial Juan Gabriel, 32330 Ciudad Juárez, CHH, Mexico",Ciudad Juárez,Chihuahua,32330,Mexico,"Soriana Sanders, Eje Vial Juan Gabriel, 32330 Ciudad Juárez, CHH, Mexico",,,4397.0
516d8988c7a7a05ac0590316fed9a0cb3f40f00102f9012c7b300c0000000092030a50726f6e746f4c756265,ProntoLube,31.79542315,-106.51024044355083,"building, building.commercial, commercial, service, service.vehicle, service.vehicle.repair, service.vehicle.repair.car",ProntoLube,"Executive Center Boulevard, El Paso, TX 79902, United States of America",El Paso,Texas,79902,United States,"ProntoLube, Executive Center Boulevard, El Paso, TX 79902, United States of America",,,4411.0
5143d3c89d089d5ac059484f2edd7fbb3f40f00103f901595d3acb0200000092031342696369636c657461732043617272696c6c6f,Bicicletas Carrillo,31.7324198,-106.4536509,"commercial, commercial.outdoor_and_sport, commercial.outdoor_and_sport.bicycle",Bicicletas Carrillo,"Avenida De la Raza, 94158 Ciudad Juárez, CHH, Mexico",Ciudad Juárez,Chihuahua,94158,Mexico,"Bicicletas Carrillo, Avenida De la Raza, 94158 Ciudad Juárez, CHH, Mexico",,,4417.0
513cc32f50ada05ac059093f8710b2cb3f40f00103f9014c83be7f0000000092030d46616d696c7920446f6c6c6172,Family Dollar,31.7956858,-106.5105782,"commercial, commercial.discount_store",Family Dollar,"Executive Center Boulevard, El Paso, TX 79902, United States of America",El Paso,Texas,79902,United States,"Family Dollar, Executive Center Boulevard, El Paso, TX 79902, United States of America",,,4461.0
51d85bb5f634a05ac0593090a6db7eb93f40f00102f901be325a2b0000000092030744656c2052696f,Del Rio,31.72459195,-106.50323264799897,"building, building.commercial, commercial",Del Rio,"Calle Joaquín Amaro, Anexas, 32230 Ciudad Juárez, CHH, Mexico",Ciudad Juárez,Chihuahua,32230,Mexico,"Del Rio, Calle Joaquín Amaro, Anexas, 32230 Ciudad Juárez, CHH, Mexico",,,4475.0
513c934781cf9c5ac0592b960e9205bc3f40f00103f901b5cb292a02000000,,31.73446,-106.4501651,"commercial, commercial.convenience",Avenida Licenciado Adolfo López Mateos,"94158 Ciudad Juárez, CHH, Mexico",Ciudad Juárez,Chihuahua,94158,Mexico,"Avenida Licenciado Adolfo López Mateos, 94158 Ciudad Juárez, CHH, Mexico",,,4489.0
51f17332279e9d5ac059edf8f6b4d4b93f40f00103f9016efe02fc0200000092030e54616c6c65722041677569727265,Taller Aguirre,31.7259019,-106.4627779,"commercial, commercial.outdoor_and_sport, commercial.outdoor_and_sport.bicycle",Taller Aguirre,"Calle Porfirio Díaz 1221, 32330 Ciudad Juárez, CHH, Mexico",Ciudad Juárez,Chihuahua,32330,Mexico,"Taller Aguirre, Calle Porfirio Díaz 1221, 32330 Ciudad Juárez, CHH, Mexico",,,4513.0
51ece88231bf9c5ac05919d9ed1417bc3f40f00102f90107fd0f0f000000009203094c617661736f6c6173,Lavasolas,31.734727200000002,-106.44916951927343,"building, building.commercial, commercial, service, service.cleaning, service.cleaning.laundry",Lavasolas,"Avenida Licenciado Adolfo López Mateos, 94158 Ciudad Juárez, CHH, Mexico",Ciudad Juárez,Chihuahua,94158,Mexico,"Lavasolas, Avenida Licenciado Adolfo López Mateos, 94158 Ciudad Juárez, CHH, Mexico",,,4527.0
51bccb0a589d9c5ac059e2e23e2e71bc3f40f00102f90100f90f0f000000009203134661627269636173206465204672616e636961,Fabricas de Francia,31.736102000000002,-106.44710351042062,"building, building.commercial, commercial, commercial.department_store",Fabricas de Francia,"Avenida Paseo Triunfo de la República, 32340 Ciudad Juárez, CHH, Mexico",Ciudad Juárez,Chihuahua,32340,Mexico,"Fabricas de Francia, Avenida Paseo Triunfo de la República, 32340 Ciudad Juárez, CHH, Mexico",,,4551.0
51dae974b45c9c5ac05922d16581d1bd3f40f00102f90190c7df280000000092030b506c617a612048656e7279,Plaza Henry,31.74147805,-106.44315825860343,"building, building.commercial, commercial, commercial.shopping_mall",Plaza Henry,"Calle Henry Dunant, 32310 Ciudad Juárez, CHH, Mexico",Ciudad Juárez,Chihuahua,32310,Mexico,"Plaza Henry, Calle Henry Dunant, 32310 Ciudad Juárez, CHH, Mexico",,,4553.0
511e381db7ce9c5ac059887afdaac8bb3f40f00103f901a48da4c90000000092030750657263686573,Perches,31.7335307,-106.4501169,"commercial, service, service.funeral_directors",Perches,"Calle J. Carrillo, 94158 Ciudad Juárez, CHH, Mexico",Ciudad Juárez,Chihuahua,94158,Mexico,"Perches, Calle J. Carrillo, 94158 Ciudad Juárez, CHH, Mexico",,,4563.0
515b2c27c1999c5ac059e068088332bc3f40f00102f901d1f80f0f0000000092030f52696f204772616e6465204d616c6c,Rio Grande Mall,31.73514575,-106.44688443017498,"building, building.commercial, commercial, commercial.shopping_mall",Rio Grande Mall,"Avenida Vicente Guerrero, 94158 Ciudad Juárez, CHH, Mexico",Ciudad Juárez,Chihuahua,94158,Mexico,"Rio Grande Mall, Avenida Vicente Guerrero, 94158 Ciudad Juárez, CHH, Mexico",,,4600.0
51e648cdee8d9e5ac0597a80c8726db83f40f00102f901cf4cd42b000000009203165375706572204d65726361646f20476f6e7a616c657a,Super Mercado Gonzalez,31.72042005,-106.4774128918394,"building, building.commercial, commercial, commercial.supermarket",Super Mercado Gonzalez,"Calle Libertad, 32380 Ciudad Juárez, CHH, Mexico",Ciudad Juárez,Chihuahua,32380,Mexico,"Super Mercado Gonzalez, Calle Libertad, 32380 Ciudad Juárez, CHH, Mexico",,,4622.0
512a6abe184a9c5ac059e44b6491dcbd3f40f00102f90192c7df2800000000920314506c617a612050656a6f727a612044756e616e74,Plaza Pejorza Dunant,31.741646850000002,-106.44202250094591,"building, building.commercial, commercial, commercial.shopping_mall",Plaza Pejorza Dunant,"Calle Henry Dunant, 32310 Ciudad Juárez, CHH, Mexico",Ciudad Juárez,Chihuahua,32310,Mexico,"Plaza Pejorza Dunant, Calle Henry Dunant, 32310 Ciudad Juárez, CHH, Mexico",,,4635.0
51d33950f1499c5ac059e835323ad6bd3f40f00103f90192de127f01000000920307436f70796e6574,Copynet,31.7415501,-106.4420131,commercial,Copynet,"Calle Henry Dunant, 32310 Ciudad Juárez, CHH, Mexico",Ciudad Juárez,Chihuahua,32310,Mexico,"Copynet, Calle Henry Dunant, 32310 Ciudad Juárez, CHH, Mexico",,,4656.0
512b1e2801fb9b5ac0594775590872c03f40f00103f901a517e0ed0200000092031948616e6f6e2053797374656d73202d20526976657265c3b16f,Hanon Systems - Rivereño,31.75174,-106.4371951,"commercial, commercial.vehicle",Hanon Systems - Rivereño,"Avenida del Charro, 32349 Ciudad Juárez, CHH, Mexico",Ciudad Juárez,Chihuahua,32349,Mexico,"Hanon Systems - Rivereño, Avenida del Charro, 32349 Ciudad Juárez, CHH, Mexico",,,4667.0
5148b567e73e9c5ac0591b245b63e1bd3f40f00102f90193c7df28000000009203044f78786f,Oxxo,31.7417204,-106.441339350965,"building, building.commercial, commercial, commercial.convenience",Oxxo,"Calle Henry Dunant, 32310 Ciudad Juárez, CHH, Mexico",Ciudad Juárez,Chihuahua,32310,Mexico,"Oxxo, Calle Henry Dunant, 32310 Ciudad Juárez, CHH, Mexico",https://www.oxxo.com/tiendas?cr=50HNR,,4690.0
514cd7602b8c9c5ac0593a952b1d18bc3f40f00102f901d2f80f0f00000000920306532d6d617274,S-mart,31.734742949999998,-106.44605526406411,"building, building.commercial, commercial, commercial.supermarket",S-mart,"Avenida Adolfo De la Huerta, 32340 Ciudad Juárez, CHH, Mexico",Ciudad Juárez,Chihuahua,32340,Mexico,"S-mart, Avenida Adolfo De la Huerta, 32340 Ciudad Juárez, CHH, Mexico",,,4708.0
5136cd3b4e519c5ac0590950d96cacc83f40f00103f901d3f42cee000000009203385072656d69657220556e69666f726d202620546163746963616c204765617220456c205061736f204d696c697461727920537572706c7573,Premier Uniform & Tactical Gear El Paso Military Surplus,31.783881,-106.4424625,"commercial, commercial.outdoor_and_sport",Premier Uniform & Tactical Gear El Paso Military Surplus,"Montana Avenue, El Paso, TX 79903, United States of America",El Paso,Texas,79903,United States,"Premier Uniform & Tactical Gear El Paso Military Surplus, Montana Avenue, El Paso, TX 79903, United States of America",,,4709.0
51e4e9a6de649c5ac0590e83bc24dfbc3f40f00103f901a51049ee00000000,,31.7377799,-106.4436566,"commercial, commercial.convenience",Calle Pitágoras,"32340 Ciudad Juárez, CHH, Mexico",Ciudad Juárez,Chihuahua,32340,Mexico,"Calle Pitágoras, 32340 Ciudad Juárez, CHH, Mexico",,,4743.0
51c14c8006409f5ac059d03ab25318b83f40f00103f901b7e4893202000000920309537570657265747465,Superette,31.7191212,-106.4882828,"commercial, commercial.convenience",Superette,"Calle Bachiniva, 32230 Ciudad Juárez, CHH, Mexico",Ciudad Juárez,Chihuahua,32230,Mexico,"Superette, Calle Bachiniva, 32230 Ciudad Juárez, CHH, Mexico",,,4754.0
51bc6257a4539e5ac05936fa9aeb45b83f40f00103f901f6da1130010000009203084175746f5a6f6e65,AutoZone,31.7198169,-106.4738551,"commercial, commercial.vehicle",AutoZone,"Boulevard N. Municipio Libre, 32380 Ciudad Juárez, CHH, Mexico",Ciudad Juárez,Chihuahua,32380,Mexico,"AutoZone, Boulevard N. Municipio Libre, 32380 Ciudad Juárez, CHH, Mexico",,,4784.0
51cdd3caceec9e5ac05993a7bf7520ce3f40f00103f90108d6b63f00000000,,31.8051828,-106.4832036,"commercial, commercial.gift_and_souvenir",Ranger Peak Loop,"El Paso, TX 79902, United States of America",El Paso,Texas,79902,United States,"Ranger Peak Loop, El Paso, TX 79902, United States of America",,,4802.0
5188658e40979c5ac0598ee780cfc5bb3f40f00103f9012d745e3c0100000092030c53636f747420496c76656c6f,Scott Ilvelo,31.7334871,-106.4467317,"commercial, commercial.outdoor_and_sport, commercial.outdoor_and_sport.bicycle",Scott Ilvelo,"Avenida Vicente Guerrero 4300, 94158 Ciudad Juárez, CHH, Mexico",Ciudad Juárez,Chihuahua,94158,Mexico,"Scott Ilvelo, Avenida Vicente Guerrero 4300, 94158 Ciudad Juárez, CHH, Mexico",,,4803.0
51384481e3579c5ac0596c0c03f7a8bc3f40f00103f901c78aac0f0100000092030d47686f7374204379636c657279,Ghost Cyclery,31.7369532,-106.4428643,"commercial, commercial.outdoor_and_sport, commercial.outdoor_and_sport.bicycle",Ghost Cyclery,"Avenida Paseo Triunfo de la República 4728, 32349 Ciudad Juárez, CHH, Mexico",Ciudad Juárez,Chihuahua,32349,Mexico,"Ghost Cyclery, Avenida Paseo Triunfo de la República 4728, 32349 Ciudad Juárez, CHH, Mexico",https://www.facebook.com/GhostCycleryStore/,,4857.0
51d14fdd01c39d5ac05903569869b1b83f40f00103f901d918e8ec00000000,,31.7214571,-106.4650273,"commercial, commercial.convenience",Calle Paraguay,"32330 Ciudad Juárez, CHH, Mexico",Ciudad Juárez,Chihuahua,32330,Mexico,"Calle Paraguay, 32330 Ciudad Juárez, CHH, Mexico",,,4867.0
51f364eda5df9b5ac05979d924fbe7bf3f40f00103f9010918e0ed0200000092031e48616e6f6e2053797374656d73202d205061736f2064656c204e6f727465,Hanon Systems - Paso del Norte,31.7496335,-106.4355254,"commercial, commercial.vehicle",Hanom Systems - PDN,"Avenida del Charro, 32349 Ciudad Juárez, CHH, Mexico",Ciudad Juárez,Chihuahua,32349,Mexico,"Hanom Systems - PDN, Avenida del Charro, 32349 Ciudad Juárez, CHH, Mexico",,,4881.0
51f8d2252d269c5ac0597f5f653a85c83f40f00103f90133156dd602000000920312477261636520506f6f6c2053657276756365,Grace Pool Servuce,31.7832829,-106.4398301,"commercial, commercial.houseware_and_hardware, commercial.houseware_and_hardware.swimming_pool",Grace Pool Servuce,"4314 Montana Avenue, El Paso, TX 79925, United States of America",El Paso,Texas,79925,United States,"Grace Pool Servuce, 4314 Montana Avenue, El Paso, TX 79925, United States of America",http://gracepoolserviceelpaso.com/,,4892.0
517365ab26639c5ac059ffe2101c4dbc3f40f00103f9013883c4a00200000092030d486172647920c3937074696361,Hardy Óptica,31.7355516,-106.4435517,"commercial, commercial.health_and_beauty, commercial.health_and_beauty.optician",Hardy Óptica,"Calle José Borunda, 32340 Ciudad Juárez, CHH, Mexico",Ciudad Juárez,Chihuahua,32340,Mexico,"Hardy Óptica, Calle José Borunda, 32340 Ciudad Juárez, CHH, Mexico",,,4895.0
51e0c0c515519c5ac0593919a7273dbc3f40f00102f9010bfd0f0f0000000092030757616c6d617274,Walmart,31.73530815,-106.44244903861863,"building, building.commercial, commercial, commercial.department_store",Walmart,"Calle José Borunda, 32340 Ciudad Juárez, CHH, Mexico",Ciudad Juárez,Chihuahua,32340,Mexico,"Walmart, Calle José Borunda, 32340 Ciudad Juárez, CHH, Mexico",,,4913.0
51991c88765f9c5ac059c8382c6e48bc3f40f00103f9012e83c4a00200000092031152616368656c277320426f757469717565,Rachel's Boutique,31.7354802,-106.4433266,"commercial, commercial.clothing, commercial.clothing.clothes, commercial.clothing.women",Rachel's Boutique,"Calle José Borunda, 32340 Ciudad Juárez, CHH, Mexico",Ciudad Juárez,Chihuahua,32340,Mexico,"Rachel's Boutique, Calle José Borunda, 32340 Ciudad Juárez, CHH, Mexico",,,4917.0
51e0f3c308619c5ac0592a8d8fc140bc3f40f00103f9013683c4a002000000920308476f6f6420546561,Good Tea,31.7353631,-106.4434225,"commercial, commercial.food_and_drink, commercial.food_and_drink.coffee_and_tea",Good Tea,"Calle José Borunda, 32340 Ciudad Juárez, CHH, Mexico",Ciudad Juárez,Chihuahua,32340,Mexico,"Good Tea, Calle José Borunda, 32340 Ciudad Juárez, CHH, Mexico",,,4917.0
512769fe98d69c5ac059dcef05228bba3f40f00103f901553a54e100000000,,31.7286855,-106.450598,"commercial, commercial.convenience",Calle Pussini,"94158 Ciudad Juárez, CHH, Mexico",Ciudad Juárez,Chihuahua,94158,Mexico,"Calle Pussini, 94158 Ciudad Juárez, CHH, Mexico",,,4918.0
5140193e7d5f9c5ac059c2a5498a34bc3f40f00103f9013283c4a00200000092030e4d6f6461204d617363756c696e61,Moda Masculina,31.7351767,-106.4433282,"commercial, commercial.clothing, commercial.clothing.clothes, commercial.clothing.men",Moda Masculina,"Calle José Borunda, 32340 Ciudad Juárez, CHH, Mexico",Ciudad Juárez,Chihuahua,32340,Mexico,"Moda Masculina, Calle José Borunda, 32340 Ciudad Juárez, CHH, Mexico",,,4937.0
51788406c10b9c5ac0598413a469abbd3f40f00102f90139acb4250000000092033354616c6c6572657320646520416c6d6163656e657320446973747269627569646f726573206465206c612046726f6e74657261,Talleres de Almacenes Distribuidores de la Frontera,31.7408968,-106.43821740757437,"commercial, service, service.vehicle, service.vehicle.repair, service.vehicle.repair.car",Talleres de Almacenes Distribuidores de la Frontera,"Calle Provencio Espiridión, 32349 Ciudad Juárez, CHH, Mexico",Ciudad Juárez,Chihuahua,32349,Mexico,"Talleres de Almacenes Distribuidores de la Frontera, Calle Provencio Espiridión, 32349 Ciudad Juárez, CHH, Mexico",,,4944.0
5175604a6e5e9c5ac059ea930cab2ebc3f40f00103f9013383c4a00200000092031643686963204e61696c2053616cc3b36e202620537061,Chic Nail Salón & Spa,31.7350871,-106.4432636,"commercial, commercial.health_and_beauty, service, service.beauty, service.beauty.spa",Chic Nail Salón & Spa,"Calle José Borunda, 32340 Ciudad Juárez, CHH, Mexico",Ciudad Juárez,Chihuahua,32340,Mexico,"Chic Nail Salón & Spa, Calle José Borunda, 32340 Ciudad Juárez, CHH, Mexico",,,4947.0
513b4ca02d0c9c5ac0595bb3d436c5bd3f40f00103f90185290264010000009203155469656e6461206f66696369616c20427261766f73,Tienda oficial Bravos,31.7412905,-106.4382433,"commercial, commercial.outdoor_and_sport",Tienda oficial Bravos,"Calle Henry Dunant 5150, 32310 Ciudad Juárez, CHH, Mexico",Ciudad Juárez,Chihuahua,32310,Mexico,"Tienda oficial Bravos, Calle Henry Dunant 5150, 32310 Ciudad Juárez, CHH, Mexico",,,4985.0
51c26e33705b9e5ac0595a97506cbbb73f40f00102f901676db54f000000009203044f78786f,Oxxo,31.7177036,-106.47433095,"building, building.commercial, commercial, commercial.convenience",Oxxo,"Calzada Delta, 32380 Ciudad Juárez, CHH, Mexico",Ciudad Juárez,Chihuahua,32380,Mexico,"Oxxo, Calzada Delta, 32380 Ciudad Juárez, CHH, Mexico",,,4996.0
514f53701d889c5ac059e35579ad3abb3f40f00103f90171be634e0100000092030742652042696b65,Be Bike,31.7313641,-106.4458078,"commercial, commercial.outdoor_and_sport, commercial.outdoor_and_sport.bicycle",Be Bike,"Avenida Insurgentes, 94158 Ciudad Juárez, CHH, Mexico",Ciudad Juárez,Chihuahua,94158,Mexico,"Be Bike, Avenida Insurgentes, 94158 Ciudad Juárez, CHH, Mexico",,,5025.0
519b7a38dc229d5ac059ddde41a852b93f40f00103f901a17a8c7f01000000,,31.7239175,-106.4552527,"commercial, service, service.vehicle, service.vehicle.repair, service.vehicle.repair.car",Calle 21 de Marzo,"32330 Ciudad Juárez, CHH, Mexico",Ciudad Juárez,Chihuahua,32330,Mexico,"Calle 21 de Marzo, 32330 Ciudad Juárez, CHH, Mexico",,,5068.0
5144c4831cca9b5ac0596a4e62cc5dbf3f40f00103f9017fb2d5770200000092030744656c2052696f,Del Rio,31.747525,-106.4342109,"commercial, commercial.convenience, internet_access, internet_access.free, wheelchair, wheelchair.yes",Del Rio,"Avenida Hermanos Escobar, 32349 Ciudad Juárez, CHH, Mexico",Ciudad Juárez,Chihuahua,32349,Mexico,"Del Rio, Avenida Hermanos Escobar, 32349 Ciudad Juárez, CHH, Mexico",,,5069.0
5142c01028d19c5ac05962cd2e2f1bba3f40f00103f901bd96eb7601000000920310426f64656761206465204c6962726f73,Bodega de Libros,31.7269773,-106.4502659,"commercial, commercial.books",Bodega de Libros,"Avenida Licenciado Adolfo López Mateos, 94158 Ciudad Juárez, CHH, Mexico",Ciudad Juárez,Chihuahua,94158,Mexico,"Bodega de Libros, Avenida Licenciado Adolfo López Mateos, 94158 Ciudad Juárez, CHH, Mexico",,,5082.0
5170c0536ddc9d5ac0596a2015821cce3f40f00103f9018cc379610100000092030c5072696d6f205061696e7473,Primo Paints,31.8051225,-106.4665788,"commercial, commercial.hobby, commercial.hobby.art, commercial.houseware_and_hardware, commercial.houseware_and_hardware.building_materials, commercial.houseware_and_hardware.building_materials.paint",Primo Paints,"Porter Avenue, El Paso, TX 79920, United States of America",El Paso,Texas,79920,United States,"Primo Paints, Porter Avenue, El Paso, TX 79920, United States of America",,,5100.0
5183b6e6d88b9c5ac05984930508e6ba3f40f00103f901af8da4c900000000,,31.7300725,-106.4460356,"commercial, commercial.convenience",Calle Río Jucar,"94158 Ciudad Juárez, CHH, Mexico",Ciudad Juárez,Chihuahua,94158,Mexico,"Calle Río Jucar, 94158 Ciudad Juárez, CHH, Mexico",,,5107.0
51e2b26554749d5ac0596061e5316fb83f40f00103f901857f8c7f01000000,,31.7204467,-106.4602252,"commercial, commercial.convenience",Calle Acapulco,"32000 Ciudad Juárez, CHH, Mexico",Ciudad Juárez,Chihuahua,32000,Mexico,"Calle Acapulco, 32000 Ciudad Juárez, CHH, Mexico",,,5161.0
51f7ba568c049c5ac0594ce95c57ddbc3f40f00103f9014f6bf9e700000000,,31.7377524,-106.4377776,"commercial, commercial.convenience",Calle Lago de Patzcuáro,"32349 Ciudad Juárez, CHH, Mexico",Ciudad Juárez,Chihuahua,32349,Mexico,"Calle Lago de Patzcuáro, 32349 Ciudad Juárez, CHH, Mexico",,,5214.0
51fbed467a2c9f5ac05986f2bf51f2b63f40f00103f901b8e4893202000000920309537570657265747465,Superette,31.714635,-106.4870897,"commercial, commercial.convenience",Superette,"Avenida Carlos Amaya, 32230 Ciudad Juárez, CHH, Mexico",Ciudad Juárez,Chihuahua,32230,Mexico,"Superette, Avenida Carlos Amaya, 32230 Ciudad Juárez, CHH, Mexico",,,5245.0
513d7da944fe9b5ac0599e4f4c89dabc3f40f00103f901727e39bb0000000092031946756e657261726961204c6174696e6f616d65726963616e61,Funeraria Latinoamericana,31.7377096,-106.4373943,"commercial, service, service.funeral_directors",Funeraria Latinoamericana,"Avenida Paseo Triunfo de la República, 32349 Ciudad Juárez, CHH, Mexico",Ciudad Juárez,Chihuahua,32349,Mexico,"Funeraria Latinoamericana, Avenida Paseo Triunfo de la República, 32349 Ciudad Juárez, CHH, Mexico",,,5248.0
51e27c4512989d5ac05901d3c100d3b73f40f00103f901da18e8ec00000000,,31.7180634,-106.4624067,"commercial, commercial.convenience",Calle Luis Gonzaga Urbina,"32000 Ciudad Juárez, CHH, Mexico",Ciudad Juárez,Chihuahua,32000,Mexico,"Calle Luis Gonzaga Urbina, 32000 Ciudad Juárez, CHH, Mexico",,,5311.0
51ea42acfe889d5ac059ab03c29ed1b73f40f00103f901db18e8ec00000000,,31.7180423,-106.4614865,"commercial, commercial.convenience",Calle Manuel M. Ponce,"32000 Ciudad Juárez, CHH, Mexico",Ciudad Juárez,Chihuahua,32000,Mexico,"Calle Manuel M. Ponce, 32000 Ciudad Juárez, CHH, Mexico",,,5349.0
51b4e4c212ec9c5ac05932b2d7c1d2b83f40f00102f901389b54160000000092030e54686520486f6d65204465706f74,The Home Depot,31.7219659,-106.45190876991802,"building, building.commercial, commercial, commercial.houseware_and_hardware, commercial.houseware_and_hardware.doityourself",The Home Depot,"Calle Simona Barba, 32000 Ciudad Juárez, CHH, Mexico",Ciudad Juárez,Chihuahua,32000,Mexico,"The Home Depot, Calle Simona Barba, 32000 Ciudad Juárez, CHH, Mexico",,,5358.0
517203e67e339c5ac0590fb18c6e29bb3f40f00102f9010864110f000000009203054578747261,Extra,31.73110095,-106.44064304792644,"commercial, commercial.supermarket",Extra,"Avenida Plutarco Elías Calles, 94158 Ciudad Juárez, CHH, Mexico",Ciudad Juárez,Chihuahua,94158,Mexico,"Extra, Avenida Plutarco Elías Calles, 94158 Ciudad Juárez, CHH, Mexico",,,5402.0
514baa5be2eda15ac0592426232367bb3f40f00103f9011759fe20020000009203044f78786f,Oxxo,31.7320425,-106.5301443,"commercial, commercial.convenience",Oxxo,"Calle Juan Balderas, 32217 Ciudad Juárez, CHH, Mexico",Ciudad Juárez,Chihuahua,32217,Mexico,"Oxxo, Calle Juan Balderas, 32217 Ciudad Juárez, CHH, Mexico",,,5409.0
519d42531bc19b5ac059d1e23a388ec83f40f00103f901b8be8e7d0200000092031654616d204675726e697475726520446973636f756e74,Tam Furniture Discount,31.7834201,-106.4336613,"commercial, commercial.furniture_and_interior",Tam Furniture Discount,"4670 Montana Avenue, El Paso, TX 79903, United States of America",El Paso,Texas,79903,United States,"Tam Furniture Discount, 4670 Montana Avenue, El Paso, TX 79903, United States of America",https://tamfurniturediscount.com,,5417.0
518fa8ab96cf9b5ac05927f0886b21bd3f40f00103f901aaa8bbe0020000009203164879756e64616920434c4542455220547269756e666f,Hyundai CLEBER Triunfo,31.7387912,-106.4345452,"commercial, commercial.vehicle",Hyundai CLEBER Triunfo,"Avenida Paseo Triunfo de la República, 32349 Ciudad Juárez, CHH, Mexico",Ciudad Juárez,Chihuahua,32349,Mexico,"Hyundai CLEBER Triunfo, Avenida Paseo Triunfo de la República, 32349 Ciudad Juárez, CHH, Mexico",,,5424.0
5199d942ebbc9b5ac059d59f72be8ec83f40f00103f9012038ed18020000009203085370656564776179,Speedway,31.7834281,-106.4334057,"commercial, commercial.convenience",Speedway,"4680 Montana Avenue, El Paso, TX 79903, United States of America",El Paso,Texas,79903,United States,"Speedway, 4680 Montana Avenue, El Paso, TX 79903, United States of America",https://www.speedway.com/locations/TX/El-Paso/4680-Montana-Avenue,,5439.0
51d38cfb45bf9b5ac059b11b453767bd3f40f00103f90175c9a54001000000,,31.7398562,-106.4335494,"commercial, commercial.convenience",Calle Melquíades Alanís,"32349 Ciudad Juárez, CHH, Mexico",Ciudad Juárez,Chihuahua,32349,Mexico,"Calle Melquíades Alanís, 32349 Ciudad Juárez, CHH, Mexico",,,5453.0
519e9218a91c9d5ac0596c980fb34db83f40f00103f901563a54e100000000920308456c2044616e6479,El Dandy,31.7199356,-106.4548743,"commercial, service, service.beauty, service.beauty.hairdresser",El Dandy,"Calle Rubén Posada Pompa, 32683 Ciudad Juárez, CHH, Mexico",Ciudad Juárez,Chihuahua,32683,Mexico,"El Dandy, Calle Rubén Posada Pompa, 32683 Ciudad Juárez, CHH, Mexico",,,5459.0
5146739d32539b5ac059db8b10da72c43f40f00102f9015773663d0000000092030c416365204861726477617265,Ace Hardware,31.767377500000002,-106.42695298553471,"building, building.commercial, commercial, commercial.houseware_and_hardware, commercial.houseware_and_hardware.hardware_and_tools",Ace Hardware,"Paisano Drive, El Paso, TX 79905, United States of America",El Paso,Texas,79905,United States,"Ace Hardware, Paisano Drive, El Paso, TX 79905, United States of America",,,5466.0
51ae72d3992d9c5ac05952166defbfba3f40f00102f9016e00080f00000000920310532d6d61727420546572657369616e6f,S-mart Teresiano,31.7294912,-106.44028325700012,"building, building.commercial, commercial, commercial.supermarket",S-mart Teresiano,"Calle Joaquín Arenas, 94158 Ciudad Juárez, CHH, Mexico",Ciudad Juárez,Chihuahua,94158,Mexico,"S-mart Teresiano, Calle Joaquín Arenas, 94158 Ciudad Juárez, CHH, Mexico",,,5486.0
51dfd16b58f8a15ac05906f59d6527bb3f40f00103f9015e7806bb0200000092030744656c2052696f,Del Rio,31.7310699,-106.5307828,"commercial, commercial.convenience",Del Rio,"Calle Chiapas, 32217 Ciudad Juárez, CHH, Mexico",Ciudad Juárez,Chihuahua,32217,Mexico,"Del Rio, Calle Chiapas, 32217 Ciudad Juárez, CHH, Mexico",,,5523.0
51867f3fa4159c5ac0592d0eaf3b38bb3f40f00102f901ec61110f00000000920309534f4c46555455524f,SOLFUTURO,31.731326799999998,-106.43882089806547,"commercial, commercial.houseware_and_hardware, commercial.houseware_and_hardware.doityourself",SOLFUTURO,"Avenida Insurgentes 5313, 32349 Ciudad Juárez, CHH, Mexico",Ciudad Juárez,Chihuahua,32349,Mexico,"SOLFUTURO, Avenida Insurgentes 5313, 32349 Ciudad Juárez, CHH, Mexico",http://www.Solfuturo.com,,5526.0
51b8051381d59c5ac059a4eb85ad8fb83f40f00102f901195e733c000000009203084175746f5a6f6e65,AutoZone,31.72094235,-106.45053126199389,"building, building.commercial, commercial, commercial.vehicle",AutoZone,"Avenida Licenciado Adolfo López Mateos 1440, 32380 Ciudad Juárez, CHH, Mexico",Ciudad Juárez,Chihuahua,32380,Mexico,"AutoZone, Avenida Licenciado Adolfo López Mateos 1440, 32380 Ciudad Juárez, CHH, Mexico",,,5575.0
